[
 {
   "FIELD1": 0,
   "name": "Afghanistan",
   "lat": 33.7680065,
   "lon": 66.2385139,
   "date": "2020-01-22",
   "value": 0,
   "deaths": 0,
   "recovered": 0,
   "category": "Afghanistan"
 },
 {
   "FIELD1": 14964,
   "name": "Kosovo",
   "lat": 42.5869578,
   "lon": 20.9021231,
   "date": "2020-01-22",
   "value": 0,
   "deaths": 0,
   "recovered": 0,
   "category": "Kosovo"
 },
 {
   "FIELD1": 10062,
   "name": "Paraguay",
   "lat": -23.3165935,
   "lon": -58.1693445,
   "date": "2020-01-22",
   "value": 0,
   "deaths": 0,
   "recovered": 0,
   "category": "Paraguay"
 },
 {
   "FIELD1": 15222,
   "name": "Botswana",
   "lat": -23.1681782,
   "lon": 24.5928742,
   "date": "2020-01-22",
   "value": 0,
   "deaths": 0,
   "recovered": 0,
   "category": "Botswana"
 },
 {
   "FIELD1": 9288,
   "name": "Nicaragua",
   "lat": 12.6090157,
   "lon": -85.2936911,
   "date": "2020-01-22",
   "value": 0,
   "deaths": 0,
   "recovered": 0,
   "category": "Nicaragua"
 },
 {
   "FIELD1": 10406,
   "name": "Portugal",
   "lat": 40.0332629,
   "lon": -7.8896263,
   "date": "2020-01-22",
   "value": 0,
   "deaths": 0,
   "recovered": 0,
   "category": "Portugal"
 },
 {
   "FIELD1": 774,
   "name": "Austria",
   "lat": 47.2000338,
   "lon": 13.199959,
   "date": "2020-01-22",
   "value": 0,
   "deaths": 0,
   "recovered": 0,
   "category": "Austria"
 },
 {
   "FIELD1": 5418,
   "name": "Guatemala",
   "lat": 15.6356088,
   "lon": -89.8988087,
   "date": "2020-01-22",
   "value": 0,
   "deaths": 0,
   "recovered": 0,
   "category": "Guatemala"
 },
 {
   "FIELD1": 15738,
   "name": "Sao Tome and Principe",
   "lat": 0.8875498,
   "lon": 6.9648718,
   "date": "2020-01-22",
   "value": 0,
   "deaths": 0,
   "recovered": 0,
   "category": "Sao Tome and Principe"
 },
 {
   "FIELD1": 172,
   "name": "Algeria",
   "lat": 28.0000272,
   "lon": 2.9999825,
   "date": "2020-01-22",
   "value": 0,
   "deaths": 0,
   "recovered": 0,
   "category": "Algeria"
 },
 {
   "FIELD1": 3268,
   "name": "Croatia",
   "lat": 45.5643442,
   "lon": 17.0118954,
   "date": "2020-01-22",
   "value": 0,
   "deaths": 0,
   "recovered": 0,
   "category": "Croatia"
 },
 {
   "FIELD1": 4386,
   "name": "Estonia",
   "lat": 58.7523778,
   "lon": 25.3319078,
   "date": "2020-01-22",
   "value": 0,
   "deaths": 0,
   "recovered": 0,
   "category": "Estonia"
 },
 {
   "FIELD1": 9632,
   "name": "Norway",
   "lat": 64.5731537,
   "lon": 11.52803643954819,
   "date": "2020-01-22",
   "value": 0,
   "deaths": 0,
   "recovered": 0,
   "category": "Norway"
 },
 {
   "FIELD1": 1720,
   "name": "Bosnia and Herzegovina",
   "lat": 44.3053476,
   "lon": 17.5961467,
   "date": "2020-01-22",
   "value": 0,
   "deaths": 0,
   "recovered": 0,
   "category": "Bosnia and Herzegovina"
 },
 {
   "FIELD1": 6192,
   "name": "Indonesia",
   "lat": -2.4833826,
   "lon": 117.8902853,
   "date": "2020-01-22",
   "value": 0,
   "deaths": 0,
   "recovered": 0,
   "category": "Indonesia"
 },
 {
   "FIELD1": 11438,
   "name": "Singapore",
   "lat": 1.357107,
   "lon": 103.8194992,
   "date": "2020-01-22",
   "value": 0,
   "deaths": 0,
   "recovered": 0,
   "category": "Singapore"
 },
 {
   "FIELD1": 12298,
   "name": "Switzerland",
   "lat": 46.7985624,
   "lon": 8.2319736,
   "date": "2020-01-22",
   "value": 0,
   "deaths": 0,
   "recovered": 0,
   "category": "Switzerland"
 },
 {
   "FIELD1": 14190,
   "name": "Syria",
   "lat": 34.6401861,
   "lon": 39.0494106,
   "date": "2020-01-22",
   "value": 0,
   "deaths": 0,
   "recovered": 0,
   "category": "Syria"
 },
 {
   "FIELD1": 2494,
   "name": "Central African Republic",
   "lat": 7.0323598,
   "lon": 19.9981227,
   "date": "2020-01-22",
   "value": 0,
   "deaths": 0,
   "recovered": 0,
   "category": "Central African Republic"
 },
 {
   "FIELD1": 13416,
   "name": "US",
   "lat": 39.7837304,
   "lon": -100.4458825,
   "date": "2020-01-22",
   "value": 1,
   "deaths": 0,
   "recovered": 0,
   "category": "US"
 },
 {
   "FIELD1": 688,
   "name": "Australia",
   "lat": -24.7761086,
   "lon": 134.755,
   "date": "2020-01-22",
   "value": 0,
   "deaths": 0,
   "recovered": 0,
   "category": "Australia"
 },
 {
   "FIELD1": 3784,
   "name": "Djibouti",
   "lat": 11.8145966,
   "lon": 42.8453061,
   "date": "2020-01-22",
   "value": 0,
   "deaths": 0,
   "recovered": 0,
   "category": "Djibouti"
 },
 {
   "FIELD1": 12040,
   "name": "Sudan",
   "lat": 14.5844444,
   "lon": 29.4917691,
   "date": "2020-01-22",
   "value": 0,
   "deaths": 0,
   "recovered": 0,
   "category": "Sudan"
 },
 {
   "FIELD1": 8256,
   "name": "Mauritania",
   "lat": 20.2540382,
   "lon": -9.2399263,
   "date": "2020-01-22",
   "value": 0,
   "deaths": 0,
   "recovered": 0,
   "category": "Mauritania"
 },
 {
   "FIELD1": 7482,
   "name": "Lebanon",
   "lat": 33.8750629,
   "lon": 35.843409,
   "date": "2020-01-22",
   "value": 0,
   "deaths": 0,
   "recovered": 0,
   "category": "Lebanon"
 },
 {
   "FIELD1": 3182,
   "name": "Cote d'Ivoire",
   "lat": 7.9897371,
   "lon": -5.5679458,
   "date": "2020-01-22",
   "value": 0,
   "deaths": 0,
   "recovered": 0,
   "category": "Cote d'Ivoire"
 },
 {
   "FIELD1": 3010,
   "name": "Congo (Kinshasa)",
   "lat": -2.9814344,
   "lon": 23.8222636,
   "date": "2020-01-22",
   "value": 0,
   "deaths": 0,
   "recovered": 0,
   "category": "Congo (Kinshasa)"
 },
 {
   "FIELD1": 15480,
   "name": "Malawi",
   "lat": -13.2687204,
   "lon": 33.9301963,
   "date": "2020-01-22",
   "value": 0,
   "deaths": 0,
   "recovered": 0,
   "category": "Malawi"
 },
 {
   "FIELD1": 1376,
   "name": "Belgium",
   "lat": 50.6402809,
   "lon": 4.6667145,
   "date": "2020-01-22",
   "value": 0,
   "deaths": 0,
   "recovered": 0,
   "category": "Belgium"
 },
 {
   "FIELD1": 11180,
   "name": "Senegal",
   "lat": 14.4750607,
   "lon": -14.4529612,
   "date": "2020-01-22",
   "value": 0,
   "deaths": 0,
   "recovered": 0,
   "category": "Senegal"
 },
 {
   "FIELD1": 8342,
   "name": "Mauritius",
   "lat": -20.2759451,
   "lon": 57.5703566,
   "date": "2020-01-22",
   "value": 0,
   "deaths": 0,
   "recovered": 0,
   "category": "Mauritius"
 },
 {
   "FIELD1": 7396,
   "name": "Latvia",
   "lat": 56.8406494,
   "lon": 24.7537645,
   "date": "2020-01-22",
   "value": 0,
   "deaths": 0,
   "recovered": 0,
   "category": "Latvia"
 },
 {
   "FIELD1": 14104,
   "name": "Mozambique",
   "lat": -19.302233,
   "lon": 34.9144977,
   "date": "2020-01-22",
   "value": 0,
   "deaths": 0,
   "recovered": 0,
   "category": "Mozambique"
 },
 {
   "FIELD1": 4644,
   "name": "Fiji",
   "lat": -18.1239696,
   "lon": 179.0122737,
   "date": "2020-01-22",
   "value": 0,
   "deaths": 0,
   "recovered": 0,
   "category": "Fiji"
 },
 {
   "FIELD1": 8686,
   "name": "Mongolia",
   "lat": 46.8250388,
   "lon": 103.8499736,
   "date": "2020-01-22",
   "value": 0,
   "deaths": 0,
   "recovered": 0,
   "category": "Mongolia"
 },
 {
   "FIELD1": 6794,
   "name": "Japan",
   "lat": 36.5748441,
   "lon": 139.2394179,
   "date": "2020-01-22",
   "value": 2,
   "deaths": 0,
   "recovered": 0,
   "category": "Japan"
 },
 {
   "FIELD1": 12728,
   "name": "Trinidad and Tobago",
   "lat": 10.8677845,
   "lon": -60.9821067,
   "date": "2020-01-22",
   "value": 0,
   "deaths": 0,
   "recovered": 0,
   "category": "Trinidad and Tobago"
 },
 {
   "FIELD1": 7740,
   "name": "Lithuania",
   "lat": 55.3500003,
   "lon": 23.7499997,
   "date": "2020-01-22",
   "value": 0,
   "deaths": 0,
   "recovered": 0,
   "category": "Lithuania"
 },
 {
   "FIELD1": 7998,
   "name": "Malaysia",
   "lat": 4.5693754,
   "lon": 102.2656823,
   "date": "2020-01-22",
   "value": 0,
   "deaths": 0,
   "recovered": 0,
   "category": "Malaysia"
 },
 {
   "FIELD1": 12384,
   "name": "Taiwan*",
   "lat": 23.9739374,
   "lon": 120.9820179,
   "date": "2020-01-22",
   "value": 1,
   "deaths": 0,
   "recovered": 0,
   "category": "Taiwan*"
 },
 {
   "FIELD1": 430,
   "name": "Antigua and Barbuda",
   "lat": 17.2234721,
   "lon": -61.9554608,
   "date": "2020-01-22",
   "value": 0,
   "deaths": 0,
   "recovered": 0,
   "category": "Antigua and Barbuda"
 },
 {
   "FIELD1": 2580,
   "name": "Chad",
   "lat": 15.6134137,
   "lon": 19.0156172,
   "date": "2020-01-22",
   "value": 0,
   "deaths": 0,
   "recovered": 0,
   "category": "Chad"
 },
 {
   "FIELD1": 13760,
   "name": "Zambia",
   "lat": -14.5186239,
   "lon": 27.5599164,
   "date": "2020-01-22",
   "value": 0,
   "deaths": 0,
   "recovered": 0,
   "category": "Zambia"
 },
 {
   "FIELD1": 6536,
   "name": "Israel",
   "lat": 31.5313113,
   "lon": 34.8667654,
   "date": "2020-01-22",
   "value": 0,
   "deaths": 0,
   "recovered": 0,
   "category": "Israel"
 },
 {
   "FIELD1": 6966,
   "name": "Kazakhstan",
   "lat": 47.2286086,
   "lon": 65.2093197,
   "date": "2020-01-22",
   "value": 0,
   "deaths": 0,
   "recovered": 0,
   "category": "Kazakhstan"
 },
 {
   "FIELD1": 13330,
   "name": "Uruguay",
   "lat": -32.8755548,
   "lon": -56.0201525,
   "date": "2020-01-22",
   "value": 0,
   "deaths": 0,
   "recovered": 0,
   "category": "Uruguay"
 },
 {
   "FIELD1": 9460,
   "name": "Nigeria",
   "lat": 9.6000359,
   "lon": 7.9999721,
   "date": "2020-01-22",
   "value": 0,
   "deaths": 0,
   "recovered": 0,
   "category": "Nigeria"
 },
 {
   "FIELD1": 2150,
   "name": "Cabo Verde",
   "lat": 16.0000552,
   "lon": -24.0083947,
   "date": "2020-01-22",
   "value": 0,
   "deaths": 0,
   "recovered": 0,
   "category": "Cabo Verde"
 },
 {
   "FIELD1": 3526,
   "name": "Cyprus",
   "lat": 34.9823018,
   "lon": 33.1451285,
   "date": "2020-01-22",
   "value": 0,
   "deaths": 0,
   "recovered": 0,
   "category": "Cyprus"
 },
 {
   "FIELD1": 11696,
   "name": "Somalia",
   "lat": 8.3676771,
   "lon": 49.083416,
   "date": "2020-01-22",
   "value": 0,
   "deaths": 0,
   "recovered": 0,
   "category": "Somalia"
 },
 {
   "FIELD1": 4128,
   "name": "El Salvador",
   "lat": 13.8000382,
   "lon": -88.9140683,
   "date": "2020-01-22",
   "value": 0,
   "deaths": 0,
   "recovered": 0,
   "category": "El Salvador"
 },
 {
   "FIELD1": 5074,
   "name": "Georgia",
   "lat": 32.3293809,
   "lon": -83.1137366,
   "date": "2020-01-22",
   "value": 0,
   "deaths": 0,
   "recovered": 0,
   "category": "Georgia"
 },
 {
   "FIELD1": 10750,
   "name": "Rwanda",
   "lat": -1.9646631,
   "lon": 30.0644358,
   "date": "2020-01-22",
   "value": 0,
   "deaths": 0,
   "recovered": 0,
   "category": "Rwanda"
 },
 {
   "FIELD1": 14534,
   "name": "Libya",
   "lat": 26.8234472,
   "lon": 18.1236723,
   "date": "2020-01-22",
   "value": 0,
   "deaths": 0,
   "recovered": 0,
   "category": "Libya"
 },
 {
   "FIELD1": 946,
   "name": "Bahamas",
   "lat": 24.7736546,
   "lon": -78.0000547,
   "date": "2020-01-22",
   "value": 0,
   "deaths": 0,
   "recovered": 0,
   "category": "Bahamas"
 },
 {
   "FIELD1": 15136,
   "name": "MS Zaandam",
   "lat": 52.4387696,
   "lon": 4.8185293,
   "date": "2020-01-22",
   "value": 0,
   "deaths": 0,
   "recovered": 0,
   "category": "MS Zaandam"
 },
 {
   "FIELD1": 14448,
   "name": "Laos",
   "lat": 20.0171109,
   "lon": 103.378253,
   "date": "2020-01-22",
   "value": 0,
   "deaths": 0,
   "recovered": 0,
   "category": "Laos"
 },
 {
   "FIELD1": 13502,
   "name": "Uzbekistan",
   "lat": 41.32373,
   "lon": 63.9528098,
   "date": "2020-01-22",
   "value": 0,
   "deaths": 0,
   "recovered": 0,
   "category": "Uzbekistan"
 },
 {
   "FIELD1": 14276,
   "name": "Timor-Leste",
   "lat": -8.5151979,
   "lon": 125.8375756,
   "date": "2020-01-22",
   "value": 0,
   "deaths": 0,
   "recovered": 0,
   "category": "Timor-Leste"
 },
 {
   "FIELD1": 14362,
   "name": "Belize",
   "lat": 16.8259793,
   "lon": -88.7600927,
   "date": "2020-01-22",
   "value": 0,
   "deaths": 0,
   "recovered": 0,
   "category": "Belize"
 },
 {
   "FIELD1": 4300,
   "name": "Eritrea",
   "lat": 15.9500319,
   "lon": 37.9999668,
   "date": "2020-01-22",
   "value": 0,
   "deaths": 0,
   "recovered": 0,
   "category": "Eritrea"
 },
 {
   "FIELD1": 11524,
   "name": "Slovakia",
   "lat": 48.7411522,
   "lon": 19.4528646,
   "date": "2020-01-22",
   "value": 0,
   "deaths": 0,
   "recovered": 0,
   "category": "Slovakia"
 },
 {
   "FIELD1": 15652,
   "name": "Western Sahara",
   "lat": 24.1797324,
   "lon": -13.7667848,
   "date": "2020-01-22",
   "value": 0,
   "deaths": 0,
   "recovered": 0,
   "category": "Western Sahara"
 },
 {
   "FIELD1": 12212,
   "name": "Sweden",
   "lat": 59.6749712,
   "lon": 14.5208584,
   "date": "2020-01-22",
   "value": 0,
   "deaths": 0,
   "recovered": 0,
   "category": "Sweden"
 },
 {
   "FIELD1": 4730,
   "name": "Finland",
   "lat": 63.2467777,
   "lon": 25.9209164,
   "date": "2020-01-22",
   "value": 0,
   "deaths": 0,
   "recovered": 0,
   "category": "Finland"
 },
 {
   "FIELD1": 258,
   "name": "Andorra",
   "lat": 42.5407167,
   "lon": 1.5732033,
   "date": "2020-01-22",
   "value": 0,
   "deaths": 0,
   "recovered": 0,
   "category": "Andorra"
 },
 {
   "FIELD1": 6364,
   "name": "Iraq",
   "lat": 33.0955793,
   "lon": 44.1749775,
   "date": "2020-01-22",
   "value": 0,
   "deaths": 0,
   "recovered": 0,
   "category": "Iraq"
 },
 {
   "FIELD1": 10836,
   "name": "Saint Lucia",
   "lat": 13.8250489,
   "lon": -60.975036,
   "date": "2020-01-22",
   "value": 0,
   "deaths": 0,
   "recovered": 0,
   "category": "Saint Lucia"
 },
 {
   "FIELD1": 2408,
   "name": "Canada",
   "lat": 61.0666922,
   "lon": -107.9917071,
   "date": "2020-01-22",
   "value": 0,
   "deaths": 0,
   "recovered": 0,
   "category": "Canada"
 },
 {
   "FIELD1": 1548,
   "name": "Bhutan",
   "lat": 27.549511,
   "lon": 90.5119273,
   "date": "2020-01-22",
   "value": 0,
   "deaths": 0,
   "recovered": 0,
   "category": "Bhutan"
 },
 {
   "FIELD1": 4988,
   "name": "Gambia",
   "lat": 13.470062,
   "lon": -15.4900464,
   "date": "2020-01-22",
   "value": 0,
   "deaths": 0,
   "recovered": 0,
   "category": "Gambia"
 },
 {
   "FIELD1": 2322,
   "name": "Cameroon",
   "lat": 4.6125522,
   "lon": 13.1535811,
   "date": "2020-01-22",
   "value": 0,
   "deaths": 0,
   "recovered": 0,
   "category": "Cameroon"
 },
 {
   "FIELD1": 11094,
   "name": "Saudi Arabia",
   "lat": 25.6242618,
   "lon": 42.3528328,
   "date": "2020-01-22",
   "value": 0,
   "deaths": 0,
   "recovered": 0,
   "category": "Saudi Arabia"
 },
 {
   "FIELD1": 8170,
   "name": "Malta",
   "lat": 35.8885993,
   "lon": 14.4476911,
   "date": "2020-01-22",
   "value": 0,
   "deaths": 0,
   "recovered": 0,
   "category": "Malta"
 },
 {
   "FIELD1": 7568,
   "name": "Liberia",
   "lat": 5.7499721,
   "lon": -9.3658524,
   "date": "2020-01-22",
   "value": 0,
   "deaths": 0,
   "recovered": 0,
   "category": "Liberia"
 },
 {
   "FIELD1": 3698,
   "name": "Denmark",
   "lat": 55.670249,
   "lon": 10.3333283,
   "date": "2020-01-22",
   "value": 0,
   "deaths": 0,
   "recovered": 0,
   "category": "Denmark"
 },
 {
   "FIELD1": 12126,
   "name": "Suriname",
   "lat": 4.1413025,
   "lon": -56.0771187,
   "date": "2020-01-22",
   "value": 0,
   "deaths": 0,
   "recovered": 0,
   "category": "Suriname"
 },
 {
   "FIELD1": 6880,
   "name": "Jordan",
   "lat": 31.1667049,
   "lon": 36.941628,
   "date": "2020-01-22",
   "value": 0,
   "deaths": 0,
   "recovered": 0,
   "category": "Jordan"
 },
 {
   "FIELD1": 10234,
   "name": "Philippines",
   "lat": 12.7503486,
   "lon": 122.7312101,
   "date": "2020-01-22",
   "value": 0,
   "deaths": 0,
   "recovered": 0,
   "category": "Philippines"
 },
 {
   "FIELD1": 7138,
   "name": "Korea, South",
   "lat": 35.7724185,
   "lon": 127.79654346305617,
   "date": "2020-01-22",
   "value": 1,
   "deaths": 0,
   "recovered": 0,
   "category": "Korea, South"
 },
 {
   "FIELD1": 5590,
   "name": "Guyana",
   "lat": 4.8417097,
   "lon": -58.6416891,
   "date": "2020-01-22",
   "value": 0,
   "deaths": 0,
   "recovered": 0,
   "category": "Guyana"
 },
 {
   "FIELD1": 13588,
   "name": "Venezuela",
   "lat": 8.0018709,
   "lon": -66.1109318,
   "date": "2020-01-22",
   "value": 0,
   "deaths": 0,
   "recovered": 0,
   "category": "Venezuela"
 },
 {
   "FIELD1": 6278,
   "name": "Iran",
   "lat": 32.6475314,
   "lon": 54.5643516,
   "date": "2020-01-22",
   "value": 0,
   "deaths": 0,
   "recovered": 0,
   "category": "Iran"
 },
 {
   "FIELD1": 1634,
   "name": "Bolivia",
   "lat": -17.0568696,
   "lon": -64.9912286,
   "date": "2020-01-22",
   "value": 0,
   "deaths": 0,
   "recovered": 0,
   "category": "Bolivia"
 },
 {
   "FIELD1": 12642,
   "name": "Togo",
   "lat": 8.7800265,
   "lon": 1.0199765,
   "date": "2020-01-22",
   "value": 0,
   "deaths": 0,
   "recovered": 0,
   "category": "Togo"
 },
 {
   "FIELD1": 13674,
   "name": "Vietnam",
   "lat": 13.2904027,
   "lon": 108.4265113,
   "date": "2020-01-22",
   "value": 0,
   "deaths": 0,
   "recovered": 0,
   "category": "Vietnam"
 },
 {
   "FIELD1": 8944,
   "name": "Namibia",
   "lat": -23.2335499,
   "lon": 17.3231107,
   "date": "2020-01-22",
   "value": 0,
   "deaths": 0,
   "recovered": 0,
   "category": "Namibia"
 },
 {
   "FIELD1": 6450,
   "name": "Ireland",
   "lat": 52.865196,
   "lon": -7.9794599,
   "date": "2020-01-22",
   "value": 0,
   "deaths": 0,
   "recovered": 0,
   "category": "Ireland"
 },
 {
   "FIELD1": 2236,
   "name": "Cambodia",
   "lat": 13.5066394,
   "lon": 104.869423,
   "date": "2020-01-22",
   "value": 0,
   "deaths": 0,
   "recovered": 0,
   "category": "Cambodia"
 },
 {
   "FIELD1": 1462,
   "name": "Benin",
   "lat": 9.5293472,
   "lon": 2.2584408,
   "date": "2020-01-22",
   "value": 0,
   "deaths": 0,
   "recovered": 0,
   "category": "Benin"
 },
 {
   "FIELD1": 1032,
   "name": "Bahrain",
   "lat": 26.1551249,
   "lon": 50.5344606,
   "date": "2020-01-22",
   "value": 0,
   "deaths": 0,
   "recovered": 0,
   "category": "Bahrain"
 },
 {
   "FIELD1": 12900,
   "name": "Turkey",
   "lat": 38.9597594,
   "lon": 34.9249653,
   "date": "2020-01-22",
   "value": 0,
   "deaths": 0,
   "recovered": 0,
   "category": "Turkey"
 },
 {
   "FIELD1": 12986,
   "name": "Uganda",
   "lat": 1.5333554,
   "lon": 32.2166578,
   "date": "2020-01-22",
   "value": 0,
   "deaths": 0,
   "recovered": 0,
   "category": "Uganda"
 },
 {
   "FIELD1": 7654,
   "name": "Liechtenstein",
   "lat": 47.1416307,
   "lon": 9.5531527,
   "date": "2020-01-22",
   "value": 0,
   "deaths": 0,
   "recovered": 0,
   "category": "Liechtenstein"
 },
 {
   "FIELD1": 8084,
   "name": "Maldives",
   "lat": 4.7064352,
   "lon": 73.3287853,
   "date": "2020-01-22",
   "value": 0,
   "deaths": 0,
   "recovered": 0,
   "category": "Maldives"
 },
 {
   "FIELD1": 2924,
   "name": "Congo (Brazzaville)",
   "lat": -0.7264327,
   "lon": 15.6419155,
   "date": "2020-01-22",
   "value": 0,
   "deaths": 0,
   "recovered": 0,
   "category": "Congo (Brazzaville)"
 },
 {
   "FIELD1": 3612,
   "name": "Czechia",
   "lat": 49.8167003,
   "lon": 15.4749544,
   "date": "2020-01-22",
   "value": 0,
   "deaths": 0,
   "recovered": 0,
   "category": "Czechia"
 },
 {
   "FIELD1": 9546,
   "name": "North Macedonia",
   "lat": 41.6171214,
   "lon": 21.7168387,
   "date": "2020-01-22",
   "value": 0,
   "deaths": 0,
   "recovered": 0,
   "category": "North Macedonia"
 },
 {
   "FIELD1": 10320,
   "name": "Poland",
   "lat": 52.215933,
   "lon": 19.134422,
   "date": "2020-01-22",
   "value": 0,
   "deaths": 0,
   "recovered": 0,
   "category": "Poland"
 },
 {
   "FIELD1": 5676,
   "name": "Haiti",
   "lat": 19.1399952,
   "lon": -72.3570972,
   "date": "2020-01-22",
   "value": 0,
   "deaths": 0,
   "recovered": 0,
   "category": "Haiti"
 },
 {
   "FIELD1": 10148,
   "name": "Peru",
   "lat": -6.8699697,
   "lon": -75.0458515,
   "date": "2020-01-22",
   "value": 0,
   "deaths": 0,
   "recovered": 0,
   "category": "Peru"
 },
 {
   "FIELD1": 5504,
   "name": "Guinea",
   "lat": 10.7226226,
   "lon": -10.7083587,
   "date": "2020-01-22",
   "value": 0,
   "deaths": 0,
   "recovered": 0,
   "category": "Guinea"
 },
 {
   "FIELD1": 9374,
   "name": "Niger",
   "lat": 17.7356214,
   "lon": 9.3238432,
   "date": "2020-01-22",
   "value": 0,
   "deaths": 0,
   "recovered": 0,
   "category": "Niger"
 },
 {
   "FIELD1": 344,
   "name": "Angola",
   "lat": -11.8775768,
   "lon": 17.5691241,
   "date": "2020-01-22",
   "value": 0,
   "deaths": 0,
   "recovered": 0,
   "category": "Angola"
 },
 {
   "FIELD1": 11610,
   "name": "Slovenia",
   "lat": 45.8133113,
   "lon": 14.4808369,
   "date": "2020-01-22",
   "value": 0,
   "deaths": 0,
   "recovered": 0,
   "category": "Slovenia"
 },
 {
   "FIELD1": 4214,
   "name": "Equatorial Guinea",
   "lat": 1.613172,
   "lon": 10.5170357,
   "date": "2020-01-22",
   "value": 0,
   "deaths": 0,
   "recovered": 0,
   "category": "Equatorial Guinea"
 },
 {
   "FIELD1": 14878,
   "name": "Saint Kitts and Nevis",
   "lat": 17.250512,
   "lon": -62.6725973,
   "date": "2020-01-22",
   "value": 0,
   "deaths": 0,
   "recovered": 0,
   "category": "Saint Kitts and Nevis"
 },
 {
   "FIELD1": 8600,
   "name": "Monaco",
   "lat": 43.7323492,
   "lon": 7.4276832,
   "date": "2020-01-22",
   "value": 0,
   "deaths": 0,
   "recovered": 0,
   "category": "Monaco"
 },
 {
   "FIELD1": 8858,
   "name": "Morocco",
   "lat": 31.1728205,
   "lon": -7.3362482,
   "date": "2020-01-22",
   "value": 0,
   "deaths": 0,
   "recovered": 0,
   "category": "Morocco"
 },
 {
   "FIELD1": 15566,
   "name": "South Sudan",
   "lat": 7.8699431,
   "lon": 29.6667897,
   "date": "2020-01-22",
   "value": 0,
   "deaths": 0,
   "recovered": 0,
   "category": "South Sudan"
 },
 {
   "FIELD1": 6106,
   "name": "India",
   "lat": 22.3511148,
   "lon": 78.6677428,
   "date": "2020-01-22",
   "value": 0,
   "deaths": 0,
   "recovered": 0,
   "category": "India"
 },
 {
   "FIELD1": 5332,
   "name": "Greece",
   "lat": 38.9953683,
   "lon": 21.9877132,
   "date": "2020-01-22",
   "value": 0,
   "deaths": 0,
   "recovered": 0,
   "category": "Greece"
 },
 {
   "FIELD1": 5762,
   "name": "Holy See",
   "lat": 38.9247244,
   "lon": -77.06572732690151,
   "date": "2020-01-22",
   "value": 0,
   "deaths": 0,
   "recovered": 0,
   "category": "Holy See"
 },
 {
   "FIELD1": 14018,
   "name": "Grenada",
   "lat": 12.1360374,
   "lon": -61.6904045,
   "date": "2020-01-22",
   "value": 0,
   "deaths": 0,
   "recovered": 0,
   "category": "Grenada"
 },
 {
   "FIELD1": 14620,
   "name": "West Bank and Gaza",
   "lat": 31.4331663,
   "lon": 34.3779285,
   "date": "2020-01-22",
   "value": 0,
   "deaths": 0,
   "recovered": 0,
   "category": "West Bank and Gaza"
 },
 {
   "FIELD1": 7826,
   "name": "Luxembourg",
   "lat": 49.8158683,
   "lon": 6.1296751,
   "date": "2020-01-22",
   "value": 0,
   "deaths": 0,
   "recovered": 0,
   "category": "Luxembourg"
 },
 {
   "FIELD1": 5848,
   "name": "Honduras",
   "lat": 15.2572432,
   "lon": -86.0755145,
   "date": "2020-01-22",
   "value": 0,
   "deaths": 0,
   "recovered": 0,
   "category": "Honduras"
 },
 {
   "FIELD1": 11868,
   "name": "Spain",
   "lat": 39.3262345,
   "lon": -4.8380649,
   "date": "2020-01-22",
   "value": 0,
   "deaths": 0,
   "recovered": 0,
   "category": "Spain"
 },
 {
   "FIELD1": 2064,
   "name": "Burkina Faso",
   "lat": 12.0753083,
   "lon": -1.6880314,
   "date": "2020-01-22",
   "value": 0,
   "deaths": 0,
   "recovered": 0,
   "category": "Burkina Faso"
 },
 {
   "FIELD1": 3956,
   "name": "Ecuador",
   "lat": -1.3397668,
   "lon": -79.3666965,
   "date": "2020-01-22",
   "value": 0,
   "deaths": 0,
   "recovered": 0,
   "category": "Ecuador"
 },
 {
   "FIELD1": 516,
   "name": "Argentina",
   "lat": -34.9964963,
   "lon": -64.9672817,
   "date": "2020-01-22",
   "value": 0,
   "deaths": 0,
   "recovered": 0,
   "category": "Argentina"
 },
 {
   "FIELD1": 11008,
   "name": "San Marino",
   "lat": 43.9458623,
   "lon": 12.458306,
   "date": "2020-01-22",
   "value": 0,
   "deaths": 0,
   "recovered": 0,
   "category": "San Marino"
 },
 {
   "FIELD1": 9030,
   "name": "Nepal",
   "lat": 28.1083929,
   "lon": 84.0917139,
   "date": "2020-01-22",
   "value": 0,
   "deaths": 0,
   "recovered": 0,
   "category": "Nepal"
 },
 {
   "FIELD1": 6622,
   "name": "Italy",
   "lat": 42.6384261,
   "lon": 12.674297,
   "date": "2020-01-22",
   "value": 0,
   "deaths": 0,
   "recovered": 0,
   "category": "Italy"
 },
 {
   "FIELD1": 14706,
   "name": "Guinea-Bissau",
   "lat": 12.100035,
   "lon": -14.9000214,
   "date": "2020-01-22",
   "value": 0,
   "deaths": 0,
   "recovered": 0,
   "category": "Guinea-Bissau"
 },
 {
   "FIELD1": 860,
   "name": "Azerbaijan",
   "lat": 40.3936294,
   "lon": 47.7872508,
   "date": "2020-01-22",
   "value": 0,
   "deaths": 0,
   "recovered": 0,
   "category": "Azerbaijan"
 },
 {
   "FIELD1": 1204,
   "name": "Barbados",
   "lat": 13.1500331,
   "lon": -59.5250305,
   "date": "2020-01-22",
   "value": 0,
   "deaths": 0,
   "recovered": 0,
   "category": "Barbados"
 },
 {
   "FIELD1": 15824,
   "name": "Yemen",
   "lat": 16.3471243,
   "lon": 47.8915271,
   "date": "2020-01-22",
   "value": 0,
   "deaths": 0,
   "recovered": 0,
   "category": "Yemen"
 },
 {
   "FIELD1": 6020,
   "name": "Iceland",
   "lat": 64.9841821,
   "lon": -18.1059013,
   "date": "2020-01-22",
   "value": 0,
   "deaths": 0,
   "recovered": 0,
   "category": "Iceland"
 },
 {
   "FIELD1": 2752,
   "name": "China",
   "lat": 35.000074,
   "lon": 104.999927,
   "date": "2020-01-22",
   "value": 548,
   "deaths": 17,
   "recovered": 28,
   "category": "China"
 },
 {
   "FIELD1": 4816,
   "name": "France",
   "lat": 46.603354,
   "lon": 1.8883335,
   "date": "2020-01-22",
   "value": 0,
   "deaths": 0,
   "recovered": 0,
   "category": "France"
 },
 {
   "FIELD1": 12470,
   "name": "Tanzania",
   "lat": -6.5247123,
   "lon": 35.7878438,
   "date": "2020-01-22",
   "value": 0,
   "deaths": 0,
   "recovered": 0,
   "category": "Tanzania"
 },
 {
   "FIELD1": 13158,
   "name": "United Arab Emirates",
   "lat": 24.0002488,
   "lon": 53.9994829,
   "date": "2020-01-22",
   "value": 0,
   "deaths": 0,
   "recovered": 0,
   "category": "United Arab Emirates"
 },
 {
   "FIELD1": 4558,
   "name": "Ethiopia",
   "lat": 10.2116702,
   "lon": 38.6521203,
   "date": "2020-01-22",
   "value": 0,
   "deaths": 0,
   "recovered": 0,
   "category": "Ethiopia"
 },
 {
   "FIELD1": 8428,
   "name": "Mexico",
   "lat": 19.4326296,
   "lon": -99.1331785,
   "date": "2020-01-22",
   "value": 0,
   "deaths": 0,
   "recovered": 0,
   "category": "Mexico"
 },
 {
   "FIELD1": 11782,
   "name": "South Africa",
   "lat": -28.8166236,
   "lon": 24.991639,
   "date": "2020-01-22",
   "value": 0,
   "deaths": 0,
   "recovered": 0,
   "category": "South Africa"
 },
 {
   "FIELD1": 4042,
   "name": "Egypt",
   "lat": 26.2540493,
   "lon": 29.2675469,
   "date": "2020-01-22",
   "value": 0,
   "deaths": 0,
   "recovered": 0,
   "category": "Egypt"
 },
 {
   "FIELD1": 11266,
   "name": "Serbia",
   "lat": 44.024322850000004,
   "lon": 21.07657433209902,
   "date": "2020-01-22",
   "value": 0,
   "deaths": 0,
   "recovered": 0,
   "category": "Serbia"
 },
 {
   "FIELD1": 1118,
   "name": "Bangladesh",
   "lat": 24.4768783,
   "lon": 90.2932426,
   "date": "2020-01-22",
   "value": 0,
   "deaths": 0,
   "recovered": 0,
   "category": "Bangladesh"
 },
 {
   "FIELD1": 1978,
   "name": "Bulgaria",
   "lat": 42.6073975,
   "lon": 25.4856617,
   "date": "2020-01-22",
   "value": 0,
   "deaths": 0,
   "recovered": 0,
   "category": "Bulgaria"
 },
 {
   "FIELD1": 10578,
   "name": "Romania",
   "lat": 45.9852129,
   "lon": 24.6859225,
   "date": "2020-01-22",
   "value": 0,
   "deaths": 0,
   "recovered": 0,
   "category": "Romania"
 },
 {
   "FIELD1": 13072,
   "name": "Ukraine",
   "lat": 49.4871968,
   "lon": 31.2718321,
   "date": "2020-01-22",
   "value": 0,
   "deaths": 0,
   "recovered": 0,
   "category": "Ukraine"
 },
 {
   "FIELD1": 10492,
   "name": "Qatar",
   "lat": 25.3336984,
   "lon": 51.2295295,
   "date": "2020-01-22",
   "value": 0,
   "deaths": 0,
   "recovered": 0,
   "category": "Qatar"
 },
 {
   "FIELD1": 8772,
   "name": "Montenegro",
   "lat": 42.9868853,
   "lon": 19.5180992,
   "date": "2020-01-22",
   "value": 0,
   "deaths": 0,
   "recovered": 0,
   "category": "Montenegro"
 },
 {
   "FIELD1": 3440,
   "name": "Cuba",
   "lat": 23.0131338,
   "lon": -80.8328748,
   "date": "2020-01-22",
   "value": 0,
   "deaths": 0,
   "recovered": 0,
   "category": "Cuba"
 },
 {
   "FIELD1": 9804,
   "name": "Pakistan",
   "lat": 30.3308401,
   "lon": 71.247499,
   "date": "2020-01-22",
   "value": 0,
   "deaths": 0,
   "recovered": 0,
   "category": "Pakistan"
 },
 {
   "FIELD1": 2838,
   "name": "Colombia",
   "lat": 2.8894434,
   "lon": -73.783892,
   "date": "2020-01-22",
   "value": 0,
   "deaths": 0,
   "recovered": 0,
   "category": "Colombia"
 },
 {
   "FIELD1": 7052,
   "name": "Kenya",
   "lat": 1.4419683,
   "lon": 38.4313975,
   "date": "2020-01-22",
   "value": 0,
   "deaths": 0,
   "recovered": 0,
   "category": "Kenya"
 },
 {
   "FIELD1": 13846,
   "name": "Zimbabwe",
   "lat": -18.4554963,
   "lon": 29.7468414,
   "date": "2020-01-22",
   "value": 0,
   "deaths": 0,
   "recovered": 0,
   "category": "Zimbabwe"
 },
 {
   "FIELD1": 5934,
   "name": "Hungary",
   "lat": 47.1817585,
   "lon": 19.5060937,
   "date": "2020-01-22",
   "value": 0,
   "deaths": 0,
   "recovered": 0,
   "category": "Hungary"
 },
 {
   "FIELD1": 3354,
   "name": "Diamond Princess",
   "lat": 53.8953584,
   "lon": 27.5554078,
   "date": "2020-01-22",
   "value": 0,
   "deaths": 0,
   "recovered": 0,
   "category": "Diamond Princess"
 },
 {
   "FIELD1": 5246,
   "name": "Ghana",
   "lat": 8.0300284,
   "lon": -1.0800271,
   "date": "2020-01-22",
   "value": 0,
   "deaths": 0,
   "recovered": 0,
   "category": "Ghana"
 },
 {
   "FIELD1": 86,
   "name": "Albania",
   "lat": 41.000028,
   "lon": 19.9999619,
   "date": "2020-01-22",
   "value": 0,
   "deaths": 0,
   "recovered": 0,
   "category": "Albania"
 },
 {
   "FIELD1": 8514,
   "name": "Moldova",
   "lat": 47.2879608,
   "lon": 28.5670941,
   "date": "2020-01-22",
   "value": 0,
   "deaths": 0,
   "recovered": 0,
   "category": "Moldova"
 },
 {
   "FIELD1": 4902,
   "name": "Gabon",
   "lat": -0.8999695,
   "lon": 11.6899699,
   "date": "2020-01-22",
   "value": 0,
   "deaths": 0,
   "recovered": 0,
   "category": "Gabon"
 },
 {
   "FIELD1": 5160,
   "name": "Germany",
   "lat": 51.0834196,
   "lon": 10.4234469,
   "date": "2020-01-22",
   "value": 0,
   "deaths": 0,
   "recovered": 0,
   "category": "Germany"
 },
 {
   "FIELD1": 15050,
   "name": "Burma",
   "lat": 17.1750495,
   "lon": 95.9999652,
   "date": "2020-01-22",
   "value": 0,
   "deaths": 0,
   "recovered": 0,
   "category": "Burma"
 },
 {
   "FIELD1": 12814,
   "name": "Tunisia",
   "lat": 33.8439408,
   "lon": 9.400138,
   "date": "2020-01-22",
   "value": 0,
   "deaths": 0,
   "recovered": 0,
   "category": "Tunisia"
 },
 {
   "FIELD1": 9116,
   "name": "Netherlands",
   "lat": 52.5001698,
   "lon": 5.7480821,
   "date": "2020-01-22",
   "value": 0,
   "deaths": 0,
   "recovered": 0,
   "category": "Netherlands"
 },
 {
   "FIELD1": 10922,
   "name": "Saint Vincent and the Grenadines",
   "lat": 12.90447,
   "lon": -61.2765569,
   "date": "2020-01-22",
   "value": 0,
   "deaths": 0,
   "recovered": 0,
   "category": "Saint Vincent and the Grenadines"
 },
 {
   "FIELD1": 3870,
   "name": "Dominican Republic",
   "lat": 19.0974031,
   "lon": -70.3028026,
   "date": "2020-01-22",
   "value": 0,
   "deaths": 0,
   "recovered": 0,
   "category": "Dominican Republic"
 },
 {
   "FIELD1": 4472,
   "name": "Eswatini",
   "lat": -26.5624806,
   "lon": 31.3991317,
   "date": "2020-01-22",
   "value": 0,
   "deaths": 0,
   "recovered": 0,
   "category": "Eswatini"
 },
 {
   "FIELD1": 11352,
   "name": "Seychelles",
   "lat": -4.6574977,
   "lon": 55.4540146,
   "date": "2020-01-22",
   "value": 0,
   "deaths": 0,
   "recovered": 0,
   "category": "Seychelles"
 },
 {
   "FIELD1": 602,
   "name": "Armenia",
   "lat": 40.7696272,
   "lon": 44.6736646,
   "date": "2020-01-22",
   "value": 0,
   "deaths": 0,
   "recovered": 0,
   "category": "Armenia"
 },
 {
   "FIELD1": 7912,
   "name": "Madagascar",
   "lat": -18.9249604,
   "lon": 46.4416422,
   "date": "2020-01-22",
   "value": 0,
   "deaths": 0,
   "recovered": 0,
   "category": "Madagascar"
 },
 {
   "FIELD1": 7310,
   "name": "Kyrgyzstan",
   "lat": 41.5089324,
   "lon": 74.724091,
   "date": "2020-01-22",
   "value": 0,
   "deaths": 0,
   "recovered": 0,
   "category": "Kyrgyzstan"
 },
 {
   "FIELD1": 1806,
   "name": "Brazil",
   "lat": -10.3333333,
   "lon": -53.2,
   "date": "2020-01-22",
   "value": 0,
   "deaths": 0,
   "recovered": 0,
   "category": "Brazil"
 },
 {
   "FIELD1": 11954,
   "name": "Sri Lanka",
   "lat": 7.5554942,
   "lon": 80.7137847,
   "date": "2020-01-22",
   "value": 0,
   "deaths": 0,
   "recovered": 0,
   "category": "Sri Lanka"
 },
 {
   "FIELD1": 2666,
   "name": "Chile",
   "lat": -31.7613365,
   "lon": -71.3187697,
   "date": "2020-01-22",
   "value": 0,
   "deaths": 0,
   "recovered": 0,
   "category": "Chile"
 },
 {
   "FIELD1": 9890,
   "name": "Panama",
   "lat": 8.559559,
   "lon": -81.1308434,
   "date": "2020-01-22",
   "value": 0,
   "deaths": 0,
   "recovered": 0,
   "category": "Panama"
 },
 {
   "FIELD1": 1892,
   "name": "Brunei",
   "lat": 4.4137155,
   "lon": 114.5653908,
   "date": "2020-01-22",
   "value": 0,
   "deaths": 0,
   "recovered": 0,
   "category": "Brunei"
 },
 {
   "FIELD1": 10664,
   "name": "Russia",
   "lat": 64.6863136,
   "lon": 97.7453061,
   "date": "2020-01-22",
   "value": 0,
   "deaths": 0,
   "recovered": 0,
   "category": "Russia"
 },
 {
   "FIELD1": 14792,
   "name": "Mali",
   "lat": 16.3700359,
   "lon": -2.2900239,
   "date": "2020-01-22",
   "value": 0,
   "deaths": 0,
   "recovered": 0,
   "category": "Mali"
 },
 {
   "FIELD1": 13932,
   "name": "Dominica",
   "lat": 19.0974031,
   "lon": -70.3028026,
   "date": "2020-01-22",
   "value": 0,
   "deaths": 0,
   "recovered": 0,
   "category": "Dominica"
 },
 {
   "FIELD1": 9976,
   "name": "Papua New Guinea",
   "lat": -5.6816069,
   "lon": 144.2489081,
   "date": "2020-01-22",
   "value": 0,
   "deaths": 0,
   "recovered": 0,
   "category": "Papua New Guinea"
 },
 {
   "FIELD1": 15394,
   "name": "Sierra Leone",
   "lat": 8.6400349,
   "lon": -11.8400269,
   "date": "2020-01-22",
   "value": 0,
   "deaths": 0,
   "recovered": 0,
   "category": "Sierra Leone"
 },
 {
   "FIELD1": 15308,
   "name": "Burundi",
   "lat": -3.3634357,
   "lon": 29.8870575,
   "date": "2020-01-22",
   "value": 0,
   "deaths": 0,
   "recovered": 0,
   "category": "Burundi"
 },
 {
   "FIELD1": 1290,
   "name": "Belarus",
   "lat": 53.4250605,
   "lon": 27.6971358,
   "date": "2020-01-22",
   "value": 0,
   "deaths": 0,
   "recovered": 0,
   "category": "Belarus"
 },
 {
   "FIELD1": 7224,
   "name": "Kuwait",
   "lat": 29.2733964,
   "lon": 47.4979476,
   "date": "2020-01-22",
   "value": 0,
   "deaths": 0,
   "recovered": 0,
   "category": "Kuwait"
 },
 {
   "FIELD1": 3096,
   "name": "Costa Rica",
   "lat": 10.2735633,
   "lon": -84.0739102,
   "date": "2020-01-22",
   "value": 0,
   "deaths": 0,
   "recovered": 0,
   "category": "Costa Rica"
 },
 {
   "FIELD1": 9202,
   "name": "New Zealand",
   "lat": -41.5000831,
   "lon": 172.8344077,
   "date": "2020-01-22",
   "value": 0,
   "deaths": 0,
   "recovered": 0,
   "category": "New Zealand"
 },
 {
   "FIELD1": 9718,
   "name": "Oman",
   "lat": 21.0000287,
   "lon": 57.0036901,
   "date": "2020-01-22",
   "value": 0,
   "deaths": 0,
   "recovered": 0,
   "category": "Oman"
 },
 {
   "FIELD1": 13244,
   "name": "United Kingdom",
   "lat": 54.7023545,
   "lon": -3.2765753,
   "date": "2020-01-22",
   "value": 0,
   "deaths": 0,
   "recovered": 0,
   "category": "United Kingdom"
 },
 {
   "FIELD1": 12556,
   "name": "Thailand",
   "lat": 14.8971921,
   "lon": 100.83273,
   "date": "2020-01-22",
   "value": 2,
   "deaths": 0,
   "recovered": 0,
   "category": "Thailand"
 },
 {
   "FIELD1": 6708,
   "name": "Jamaica",
   "lat": 18.1152958,
   "lon": -77.1598454610168,
   "date": "2020-01-22",
   "value": 0,
   "deaths": 0,
   "recovered": 0,
   "category": "Jamaica"
 },
 {
   "FIELD1": 345,
   "name": "Angola",
   "lat": -11.8775768,
   "lon": 17.5691241,
   "date": "2020-01-23",
   "value": 0,
   "deaths": 0,
   "recovered": 0,
   "category": "Angola"
 },
 {
   "FIELD1": 11267,
   "name": "Serbia",
   "lat": 44.024322850000004,
   "lon": 21.07657433209902,
   "date": "2020-01-23",
   "value": 0,
   "deaths": 0,
   "recovered": 0,
   "category": "Serbia"
 },
 {
   "FIELD1": 9375,
   "name": "Niger",
   "lat": 17.7356214,
   "lon": 9.3238432,
   "date": "2020-01-23",
   "value": 0,
   "deaths": 0,
   "recovered": 0,
   "category": "Niger"
 },
 {
   "FIELD1": 8515,
   "name": "Moldova",
   "lat": 47.2879608,
   "lon": 28.5670941,
   "date": "2020-01-23",
   "value": 0,
   "deaths": 0,
   "recovered": 0,
   "category": "Moldova"
 },
 {
   "FIELD1": 5505,
   "name": "Guinea",
   "lat": 10.7226226,
   "lon": -10.7083587,
   "date": "2020-01-23",
   "value": 0,
   "deaths": 0,
   "recovered": 0,
   "category": "Guinea"
 },
 {
   "FIELD1": 8429,
   "name": "Mexico",
   "lat": 19.4326296,
   "lon": -99.1331785,
   "date": "2020-01-23",
   "value": 0,
   "deaths": 0,
   "recovered": 0,
   "category": "Mexico"
 },
 {
   "FIELD1": 1205,
   "name": "Barbados",
   "lat": 13.1500331,
   "lon": -59.5250305,
   "date": "2020-01-23",
   "value": 0,
   "deaths": 0,
   "recovered": 0,
   "category": "Barbados"
 },
 {
   "FIELD1": 4301,
   "name": "Eritrea",
   "lat": 15.9500319,
   "lon": 37.9999668,
   "date": "2020-01-23",
   "value": 0,
   "deaths": 0,
   "recovered": 0,
   "category": "Eritrea"
 },
 {
   "FIELD1": 15567,
   "name": "South Sudan",
   "lat": 7.8699431,
   "lon": 29.6667897,
   "date": "2020-01-23",
   "value": 0,
   "deaths": 0,
   "recovered": 0,
   "category": "South Sudan"
 },
 {
   "FIELD1": 5591,
   "name": "Guyana",
   "lat": 4.8417097,
   "lon": -58.6416891,
   "date": "2020-01-23",
   "value": 0,
   "deaths": 0,
   "recovered": 0,
   "category": "Guyana"
 },
 {
   "FIELD1": 603,
   "name": "Armenia",
   "lat": 40.7696272,
   "lon": 44.6736646,
   "date": "2020-01-23",
   "value": 0,
   "deaths": 0,
   "recovered": 0,
   "category": "Armenia"
 },
 {
   "FIELD1": 3355,
   "name": "Diamond Princess",
   "lat": 53.8953584,
   "lon": 27.5554078,
   "date": "2020-01-23",
   "value": 0,
   "deaths": 0,
   "recovered": 0,
   "category": "Diamond Princess"
 },
 {
   "FIELD1": 10235,
   "name": "Philippines",
   "lat": 12.7503486,
   "lon": 122.7312101,
   "date": "2020-01-23",
   "value": 0,
   "deaths": 0,
   "recovered": 0,
   "category": "Philippines"
 },
 {
   "FIELD1": 6881,
   "name": "Jordan",
   "lat": 31.1667049,
   "lon": 36.941628,
   "date": "2020-01-23",
   "value": 0,
   "deaths": 0,
   "recovered": 0,
   "category": "Jordan"
 },
 {
   "FIELD1": 5161,
   "name": "Germany",
   "lat": 51.0834196,
   "lon": 10.4234469,
   "date": "2020-01-23",
   "value": 0,
   "deaths": 0,
   "recovered": 0,
   "category": "Germany"
 },
 {
   "FIELD1": 1549,
   "name": "Bhutan",
   "lat": 27.549511,
   "lon": 90.5119273,
   "date": "2020-01-23",
   "value": 0,
   "deaths": 0,
   "recovered": 0,
   "category": "Bhutan"
 },
 {
   "FIELD1": 7569,
   "name": "Liberia",
   "lat": 5.7499721,
   "lon": -9.3658524,
   "date": "2020-01-23",
   "value": 0,
   "deaths": 0,
   "recovered": 0,
   "category": "Liberia"
 },
 {
   "FIELD1": 15309,
   "name": "Burundi",
   "lat": -3.3634357,
   "lon": 29.8870575,
   "date": "2020-01-23",
   "value": 0,
   "deaths": 0,
   "recovered": 0,
   "category": "Burundi"
 },
 {
   "FIELD1": 10665,
   "name": "Russia",
   "lat": 64.6863136,
   "lon": 97.7453061,
   "date": "2020-01-23",
   "value": 0,
   "deaths": 0,
   "recovered": 0,
   "category": "Russia"
 },
 {
   "FIELD1": 6709,
   "name": "Jamaica",
   "lat": 18.1152958,
   "lon": -77.1598454610168,
   "date": "2020-01-23",
   "value": 0,
   "deaths": 0,
   "recovered": 0,
   "category": "Jamaica"
 },
 {
   "FIELD1": 4559,
   "name": "Ethiopia",
   "lat": 10.2116702,
   "lon": 38.6521203,
   "date": "2020-01-23",
   "value": 0,
   "deaths": 0,
   "recovered": 0,
   "category": "Ethiopia"
 },
 {
   "FIELD1": 11095,
   "name": "Saudi Arabia",
   "lat": 25.6242618,
   "lon": 42.3528328,
   "date": "2020-01-23",
   "value": 0,
   "deaths": 0,
   "recovered": 0,
   "category": "Saudi Arabia"
 },
 {
   "FIELD1": 14707,
   "name": "Guinea-Bissau",
   "lat": 12.100035,
   "lon": -14.9000214,
   "date": "2020-01-23",
   "value": 0,
   "deaths": 0,
   "recovered": 0,
   "category": "Guinea-Bissau"
 },
 {
   "FIELD1": 11525,
   "name": "Slovakia",
   "lat": 48.7411522,
   "lon": 19.4528646,
   "date": "2020-01-23",
   "value": 0,
   "deaths": 0,
   "recovered": 0,
   "category": "Slovakia"
 },
 {
   "FIELD1": 2753,
   "name": "China",
   "lat": 35.000074,
   "lon": 104.999927,
   "date": "2020-01-23",
   "value": 643,
   "deaths": 18,
   "recovered": 30,
   "category": "China"
 },
 {
   "FIELD1": 14363,
   "name": "Belize",
   "lat": 16.8259793,
   "lon": -88.7600927,
   "date": "2020-01-23",
   "value": 0,
   "deaths": 0,
   "recovered": 0,
   "category": "Belize"
 },
 {
   "FIELD1": 14879,
   "name": "Saint Kitts and Nevis",
   "lat": 17.250512,
   "lon": -62.6725973,
   "date": "2020-01-23",
   "value": 0,
   "deaths": 0,
   "recovered": 0,
   "category": "Saint Kitts and Nevis"
 },
 {
   "FIELD1": 13503,
   "name": "Uzbekistan",
   "lat": 41.32373,
   "lon": 63.9528098,
   "date": "2020-01-23",
   "value": 0,
   "deaths": 0,
   "recovered": 0,
   "category": "Uzbekistan"
 },
 {
   "FIELD1": 13159,
   "name": "United Arab Emirates",
   "lat": 24.0002488,
   "lon": 53.9994829,
   "date": "2020-01-23",
   "value": 0,
   "deaths": 0,
   "recovered": 0,
   "category": "United Arab Emirates"
 },
 {
   "FIELD1": 2409,
   "name": "Canada",
   "lat": 61.0666922,
   "lon": -107.9917071,
   "date": "2020-01-23",
   "value": 0,
   "deaths": 0,
   "recovered": 0,
   "category": "Canada"
 },
 {
   "FIELD1": 12643,
   "name": "Togo",
   "lat": 8.7800265,
   "lon": 1.0199765,
   "date": "2020-01-23",
   "value": 0,
   "deaths": 0,
   "recovered": 0,
   "category": "Togo"
 },
 {
   "FIELD1": 9031,
   "name": "Nepal",
   "lat": 28.1083929,
   "lon": 84.0917139,
   "date": "2020-01-23",
   "value": 0,
   "deaths": 0,
   "recovered": 0,
   "category": "Nepal"
 },
 {
   "FIELD1": 8601,
   "name": "Monaco",
   "lat": 43.7323492,
   "lon": 7.4276832,
   "date": "2020-01-23",
   "value": 0,
   "deaths": 0,
   "recovered": 0,
   "category": "Monaco"
 },
 {
   "FIELD1": 6365,
   "name": "Iraq",
   "lat": 33.0955793,
   "lon": 44.1749775,
   "date": "2020-01-23",
   "value": 0,
   "deaths": 0,
   "recovered": 0,
   "category": "Iraq"
 },
 {
   "FIELD1": 2925,
   "name": "Congo (Brazzaville)",
   "lat": -0.7264327,
   "lon": 15.6419155,
   "date": "2020-01-23",
   "value": 0,
   "deaths": 0,
   "recovered": 0,
   "category": "Congo (Brazzaville)"
 },
 {
   "FIELD1": 5333,
   "name": "Greece",
   "lat": 38.9953683,
   "lon": 21.9877132,
   "date": "2020-01-23",
   "value": 0,
   "deaths": 0,
   "recovered": 0,
   "category": "Greece"
 },
 {
   "FIELD1": 12213,
   "name": "Sweden",
   "lat": 59.6749712,
   "lon": 14.5208584,
   "date": "2020-01-23",
   "value": 0,
   "deaths": 0,
   "recovered": 0,
   "category": "Sweden"
 },
 {
   "FIELD1": 6623,
   "name": "Italy",
   "lat": 42.6384261,
   "lon": 12.674297,
   "date": "2020-01-23",
   "value": 0,
   "deaths": 0,
   "recovered": 0,
   "category": "Italy"
 },
 {
   "FIELD1": 15481,
   "name": "Malawi",
   "lat": -13.2687204,
   "lon": 33.9301963,
   "date": "2020-01-23",
   "value": 0,
   "deaths": 0,
   "recovered": 0,
   "category": "Malawi"
 },
 {
   "FIELD1": 2667,
   "name": "Chile",
   "lat": -31.7613365,
   "lon": -71.3187697,
   "date": "2020-01-23",
   "value": 0,
   "deaths": 0,
   "recovered": 0,
   "category": "Chile"
 },
 {
   "FIELD1": 15223,
   "name": "Botswana",
   "lat": -23.1681782,
   "lon": 24.5928742,
   "date": "2020-01-23",
   "value": 0,
   "deaths": 0,
   "recovered": 0,
   "category": "Botswana"
 },
 {
   "FIELD1": 431,
   "name": "Antigua and Barbuda",
   "lat": 17.2234721,
   "lon": -61.9554608,
   "date": "2020-01-23",
   "value": 0,
   "deaths": 0,
   "recovered": 0,
   "category": "Antigua and Barbuda"
 },
 {
   "FIELD1": 10751,
   "name": "Rwanda",
   "lat": -1.9646631,
   "lon": 30.0644358,
   "date": "2020-01-23",
   "value": 0,
   "deaths": 0,
   "recovered": 0,
   "category": "Rwanda"
 },
 {
   "FIELD1": 1377,
   "name": "Belgium",
   "lat": 50.6402809,
   "lon": 4.6667145,
   "date": "2020-01-23",
   "value": 0,
   "deaths": 0,
   "recovered": 0,
   "category": "Belgium"
 },
 {
   "FIELD1": 15395,
   "name": "Sierra Leone",
   "lat": 8.6400349,
   "lon": -11.8400269,
   "date": "2020-01-23",
   "value": 0,
   "deaths": 0,
   "recovered": 0,
   "category": "Sierra Leone"
 },
 {
   "FIELD1": 3527,
   "name": "Cyprus",
   "lat": 34.9823018,
   "lon": 33.1451285,
   "date": "2020-01-23",
   "value": 0,
   "deaths": 0,
   "recovered": 0,
   "category": "Cyprus"
 },
 {
   "FIELD1": 13245,
   "name": "United Kingdom",
   "lat": 54.7023545,
   "lon": -3.2765753,
   "date": "2020-01-23",
   "value": 0,
   "deaths": 0,
   "recovered": 0,
   "category": "United Kingdom"
 },
 {
   "FIELD1": 5075,
   "name": "Georgia",
   "lat": 32.3293809,
   "lon": -83.1137366,
   "date": "2020-01-23",
   "value": 0,
   "deaths": 0,
   "recovered": 0,
   "category": "Georgia"
 },
 {
   "FIELD1": 7225,
   "name": "Kuwait",
   "lat": 29.2733964,
   "lon": 47.4979476,
   "date": "2020-01-23",
   "value": 0,
   "deaths": 0,
   "recovered": 0,
   "category": "Kuwait"
 },
 {
   "FIELD1": 13331,
   "name": "Uruguay",
   "lat": -32.8755548,
   "lon": -56.0201525,
   "date": "2020-01-23",
   "value": 0,
   "deaths": 0,
   "recovered": 0,
   "category": "Uruguay"
 },
 {
   "FIELD1": 1291,
   "name": "Belarus",
   "lat": 53.4250605,
   "lon": 27.6971358,
   "date": "2020-01-23",
   "value": 0,
   "deaths": 0,
   "recovered": 0,
   "category": "Belarus"
 },
 {
   "FIELD1": 6537,
   "name": "Israel",
   "lat": 31.5313113,
   "lon": 34.8667654,
   "date": "2020-01-23",
   "value": 0,
   "deaths": 0,
   "recovered": 0,
   "category": "Israel"
 },
 {
   "FIELD1": 14535,
   "name": "Libya",
   "lat": 26.8234472,
   "lon": 18.1236723,
   "date": "2020-01-23",
   "value": 0,
   "deaths": 0,
   "recovered": 0,
   "category": "Libya"
 },
 {
   "FIELD1": 2581,
   "name": "Chad",
   "lat": 15.6134137,
   "lon": 19.0156172,
   "date": "2020-01-23",
   "value": 0,
   "deaths": 0,
   "recovered": 0,
   "category": "Chad"
 },
 {
   "FIELD1": 9203,
   "name": "New Zealand",
   "lat": -41.5000831,
   "lon": 172.8344077,
   "date": "2020-01-23",
   "value": 0,
   "deaths": 0,
   "recovered": 0,
   "category": "New Zealand"
 },
 {
   "FIELD1": 12385,
   "name": "Taiwan*",
   "lat": 23.9739374,
   "lon": 120.9820179,
   "date": "2020-01-23",
   "value": 1,
   "deaths": 0,
   "recovered": 0,
   "category": "Taiwan*"
 },
 {
   "FIELD1": 6795,
   "name": "Japan",
   "lat": 36.5748441,
   "lon": 139.2394179,
   "date": "2020-01-23",
   "value": 2,
   "deaths": 0,
   "recovered": 0,
   "category": "Japan"
 },
 {
   "FIELD1": 14793,
   "name": "Mali",
   "lat": 16.3700359,
   "lon": -2.2900239,
   "date": "2020-01-23",
   "value": 0,
   "deaths": 0,
   "recovered": 0,
   "category": "Mali"
 },
 {
   "FIELD1": 4473,
   "name": "Eswatini",
   "lat": -26.5624806,
   "lon": 31.3991317,
   "date": "2020-01-23",
   "value": 0,
   "deaths": 0,
   "recovered": 0,
   "category": "Eswatini"
 },
 {
   "FIELD1": 4645,
   "name": "Fiji",
   "lat": -18.1239696,
   "lon": 179.0122737,
   "date": "2020-01-23",
   "value": 0,
   "deaths": 0,
   "recovered": 0,
   "category": "Fiji"
 },
 {
   "FIELD1": 7397,
   "name": "Latvia",
   "lat": 56.8406494,
   "lon": 24.7537645,
   "date": "2020-01-23",
   "value": 0,
   "deaths": 0,
   "recovered": 0,
   "category": "Latvia"
 },
 {
   "FIELD1": 11353,
   "name": "Seychelles",
   "lat": -4.6574977,
   "lon": 55.4540146,
   "date": "2020-01-23",
   "value": 0,
   "deaths": 0,
   "recovered": 0,
   "category": "Seychelles"
 },
 {
   "FIELD1": 8343,
   "name": "Mauritius",
   "lat": -20.2759451,
   "lon": 57.5703566,
   "date": "2020-01-23",
   "value": 0,
   "deaths": 0,
   "recovered": 0,
   "category": "Mauritius"
 },
 {
   "FIELD1": 10493,
   "name": "Qatar",
   "lat": 25.3336984,
   "lon": 51.2295295,
   "date": "2020-01-23",
   "value": 0,
   "deaths": 0,
   "recovered": 0,
   "category": "Qatar"
 },
 {
   "FIELD1": 10407,
   "name": "Portugal",
   "lat": 40.0332629,
   "lon": -7.8896263,
   "date": "2020-01-23",
   "value": 0,
   "deaths": 0,
   "recovered": 0,
   "category": "Portugal"
 },
 {
   "FIELD1": 9289,
   "name": "Nicaragua",
   "lat": 12.6090157,
   "lon": -85.2936911,
   "date": "2020-01-23",
   "value": 0,
   "deaths": 0,
   "recovered": 0,
   "category": "Nicaragua"
 },
 {
   "FIELD1": 517,
   "name": "Argentina",
   "lat": -34.9964963,
   "lon": -64.9672817,
   "date": "2020-01-23",
   "value": 0,
   "deaths": 0,
   "recovered": 0,
   "category": "Argentina"
 },
 {
   "FIELD1": 5419,
   "name": "Guatemala",
   "lat": 15.6356088,
   "lon": -89.8988087,
   "date": "2020-01-23",
   "value": 0,
   "deaths": 0,
   "recovered": 0,
   "category": "Guatemala"
 },
 {
   "FIELD1": 7311,
   "name": "Kyrgyzstan",
   "lat": 41.5089324,
   "lon": 74.724091,
   "date": "2020-01-23",
   "value": 0,
   "deaths": 0,
   "recovered": 0,
   "category": "Kyrgyzstan"
 },
 {
   "FIELD1": 10321,
   "name": "Poland",
   "lat": 52.215933,
   "lon": 19.134422,
   "date": "2020-01-23",
   "value": 0,
   "deaths": 0,
   "recovered": 0,
   "category": "Poland"
 },
 {
   "FIELD1": 9117,
   "name": "Netherlands",
   "lat": 52.5001698,
   "lon": 5.7480821,
   "date": "2020-01-23",
   "value": 0,
   "deaths": 0,
   "recovered": 0,
   "category": "Netherlands"
 },
 {
   "FIELD1": 1119,
   "name": "Bangladesh",
   "lat": 24.4768783,
   "lon": 90.2932426,
   "date": "2020-01-23",
   "value": 0,
   "deaths": 0,
   "recovered": 0,
   "category": "Bangladesh"
 },
 {
   "FIELD1": 1033,
   "name": "Bahrain",
   "lat": 26.1551249,
   "lon": 50.5344606,
   "date": "2020-01-23",
   "value": 0,
   "deaths": 0,
   "recovered": 0,
   "category": "Bahrain"
 },
 {
   "FIELD1": 1463,
   "name": "Benin",
   "lat": 9.5293472,
   "lon": 2.2584408,
   "date": "2020-01-23",
   "value": 0,
   "deaths": 0,
   "recovered": 0,
   "category": "Benin"
 },
 {
   "FIELD1": 12987,
   "name": "Uganda",
   "lat": 1.5333554,
   "lon": 32.2166578,
   "date": "2020-01-23",
   "value": 0,
   "deaths": 0,
   "recovered": 0,
   "category": "Uganda"
 },
 {
   "FIELD1": 13417,
   "name": "US",
   "lat": 39.7837304,
   "lon": -100.4458825,
   "date": "2020-01-23",
   "value": 1,
   "deaths": 0,
   "recovered": 0,
   "category": "US"
 },
 {
   "FIELD1": 12557,
   "name": "Thailand",
   "lat": 14.8971921,
   "lon": 100.83273,
   "date": "2020-01-23",
   "value": 3,
   "deaths": 0,
   "recovered": 0,
   "category": "Thailand"
 },
 {
   "FIELD1": 6451,
   "name": "Ireland",
   "lat": 52.865196,
   "lon": -7.9794599,
   "date": "2020-01-23",
   "value": 0,
   "deaths": 0,
   "recovered": 0,
   "category": "Ireland"
 },
 {
   "FIELD1": 12471,
   "name": "Tanzania",
   "lat": -6.5247123,
   "lon": 35.7878438,
   "date": "2020-01-23",
   "value": 0,
   "deaths": 0,
   "recovered": 0,
   "category": "Tanzania"
 },
 {
   "FIELD1": 14449,
   "name": "Laos",
   "lat": 20.0171109,
   "lon": 103.378253,
   "date": "2020-01-23",
   "value": 0,
   "deaths": 0,
   "recovered": 0,
   "category": "Laos"
 },
 {
   "FIELD1": 10579,
   "name": "Romania",
   "lat": 45.9852129,
   "lon": 24.6859225,
   "date": "2020-01-23",
   "value": 0,
   "deaths": 0,
   "recovered": 0,
   "category": "Romania"
 },
 {
   "FIELD1": 3613,
   "name": "Czechia",
   "lat": 49.8167003,
   "lon": 15.4749544,
   "date": "2020-01-23",
   "value": 0,
   "deaths": 0,
   "recovered": 0,
   "category": "Czechia"
 },
 {
   "FIELD1": 7483,
   "name": "Lebanon",
   "lat": 33.8750629,
   "lon": 35.843409,
   "date": "2020-01-23",
   "value": 0,
   "deaths": 0,
   "recovered": 0,
   "category": "Lebanon"
 },
 {
   "FIELD1": 689,
   "name": "Australia",
   "lat": -24.7761086,
   "lon": 134.755,
   "date": "2020-01-23",
   "value": 0,
   "deaths": 0,
   "recovered": 0,
   "category": "Australia"
 },
 {
   "FIELD1": 5247,
   "name": "Ghana",
   "lat": 8.0300284,
   "lon": -1.0800271,
   "date": "2020-01-23",
   "value": 0,
   "deaths": 0,
   "recovered": 0,
   "category": "Ghana"
 },
 {
   "FIELD1": 11181,
   "name": "Senegal",
   "lat": 14.4750607,
   "lon": -14.4529612,
   "date": "2020-01-23",
   "value": 0,
   "deaths": 0,
   "recovered": 0,
   "category": "Senegal"
 },
 {
   "FIELD1": 2495,
   "name": "Central African Republic",
   "lat": 7.0323598,
   "lon": 19.9981227,
   "date": "2020-01-23",
   "value": 0,
   "deaths": 0,
   "recovered": 0,
   "category": "Central African Republic"
 },
 {
   "FIELD1": 13073,
   "name": "Ukraine",
   "lat": 49.4871968,
   "lon": 31.2718321,
   "date": "2020-01-23",
   "value": 0,
   "deaths": 0,
   "recovered": 0,
   "category": "Ukraine"
 },
 {
   "FIELD1": 12299,
   "name": "Switzerland",
   "lat": 46.7985624,
   "lon": 8.2319736,
   "date": "2020-01-23",
   "value": 0,
   "deaths": 0,
   "recovered": 0,
   "category": "Switzerland"
 },
 {
   "FIELD1": 11439,
   "name": "Singapore",
   "lat": 1.357107,
   "lon": 103.8194992,
   "date": "2020-01-23",
   "value": 1,
   "deaths": 0,
   "recovered": 0,
   "category": "Singapore"
 },
 {
   "FIELD1": 3441,
   "name": "Cuba",
   "lat": 23.0131338,
   "lon": -80.8328748,
   "date": "2020-01-23",
   "value": 0,
   "deaths": 0,
   "recovered": 0,
   "category": "Cuba"
 },
 {
   "FIELD1": 2839,
   "name": "Colombia",
   "lat": 2.8894434,
   "lon": -73.783892,
   "date": "2020-01-23",
   "value": 0,
   "deaths": 0,
   "recovered": 0,
   "category": "Colombia"
 },
 {
   "FIELD1": 4387,
   "name": "Estonia",
   "lat": 58.7523778,
   "lon": 25.3319078,
   "date": "2020-01-23",
   "value": 0,
   "deaths": 0,
   "recovered": 0,
   "category": "Estonia"
 },
 {
   "FIELD1": 14621,
   "name": "West Bank and Gaza",
   "lat": 31.4331663,
   "lon": 34.3779285,
   "date": "2020-01-23",
   "value": 0,
   "deaths": 0,
   "recovered": 0,
   "category": "West Bank and Gaza"
 },
 {
   "FIELD1": 3269,
   "name": "Croatia",
   "lat": 45.5643442,
   "lon": 17.0118954,
   "date": "2020-01-23",
   "value": 0,
   "deaths": 0,
   "recovered": 0,
   "category": "Croatia"
 },
 {
   "FIELD1": 8945,
   "name": "Namibia",
   "lat": -23.2335499,
   "lon": 17.3231107,
   "date": "2020-01-23",
   "value": 0,
   "deaths": 0,
   "recovered": 0,
   "category": "Namibia"
 },
 {
   "FIELD1": 8257,
   "name": "Mauritania",
   "lat": 20.2540382,
   "lon": -9.2399263,
   "date": "2020-01-23",
   "value": 0,
   "deaths": 0,
   "recovered": 0,
   "category": "Mauritania"
 },
 {
   "FIELD1": 9461,
   "name": "Nigeria",
   "lat": 9.6000359,
   "lon": 7.9999721,
   "date": "2020-01-23",
   "value": 0,
   "deaths": 0,
   "recovered": 0,
   "category": "Nigeria"
 },
 {
   "FIELD1": 8171,
   "name": "Malta",
   "lat": 35.8885993,
   "lon": 14.4476911,
   "date": "2020-01-23",
   "value": 0,
   "deaths": 0,
   "recovered": 0,
   "category": "Malta"
 },
 {
   "FIELD1": 5763,
   "name": "Holy See",
   "lat": 38.9247244,
   "lon": -77.06572732690151,
   "date": "2020-01-23",
   "value": 0,
   "deaths": 0,
   "recovered": 0,
   "category": "Holy See"
 },
 {
   "FIELD1": 7655,
   "name": "Liechtenstein",
   "lat": 47.1416307,
   "lon": 9.5531527,
   "date": "2020-01-23",
   "value": 0,
   "deaths": 0,
   "recovered": 0,
   "category": "Liechtenstein"
 },
 {
   "FIELD1": 8085,
   "name": "Maldives",
   "lat": 4.7064352,
   "lon": 73.3287853,
   "date": "2020-01-23",
   "value": 0,
   "deaths": 0,
   "recovered": 0,
   "category": "Maldives"
 },
 {
   "FIELD1": 14105,
   "name": "Mozambique",
   "lat": -19.302233,
   "lon": 34.9144977,
   "date": "2020-01-23",
   "value": 0,
   "deaths": 0,
   "recovered": 0,
   "category": "Mozambique"
 },
 {
   "FIELD1": 12901,
   "name": "Turkey",
   "lat": 38.9597594,
   "lon": 34.9249653,
   "date": "2020-01-23",
   "value": 0,
   "deaths": 0,
   "recovered": 0,
   "category": "Turkey"
 },
 {
   "FIELD1": 15739,
   "name": "Sao Tome and Principe",
   "lat": 0.8875498,
   "lon": 6.9648718,
   "date": "2020-01-23",
   "value": 0,
   "deaths": 0,
   "recovered": 0,
   "category": "Sao Tome and Principe"
 },
 {
   "FIELD1": 87,
   "name": "Albania",
   "lat": 41.000028,
   "lon": 19.9999619,
   "date": "2020-01-23",
   "value": 0,
   "deaths": 0,
   "recovered": 0,
   "category": "Albania"
 },
 {
   "FIELD1": 9547,
   "name": "North Macedonia",
   "lat": 41.6171214,
   "lon": 21.7168387,
   "date": "2020-01-23",
   "value": 0,
   "deaths": 0,
   "recovered": 0,
   "category": "North Macedonia"
 },
 {
   "FIELD1": 5677,
   "name": "Haiti",
   "lat": 19.1399952,
   "lon": -72.3570972,
   "date": "2020-01-23",
   "value": 0,
   "deaths": 0,
   "recovered": 0,
   "category": "Haiti"
 },
 {
   "FIELD1": 10149,
   "name": "Peru",
   "lat": -6.8699697,
   "lon": -75.0458515,
   "date": "2020-01-23",
   "value": 0,
   "deaths": 0,
   "recovered": 0,
   "category": "Peru"
 },
 {
   "FIELD1": 9805,
   "name": "Pakistan",
   "lat": 30.3308401,
   "lon": 71.247499,
   "date": "2020-01-23",
   "value": 0,
   "deaths": 0,
   "recovered": 0,
   "category": "Pakistan"
 },
 {
   "FIELD1": 15825,
   "name": "Yemen",
   "lat": 16.3471243,
   "lon": 47.8915271,
   "date": "2020-01-23",
   "value": 0,
   "deaths": 0,
   "recovered": 0,
   "category": "Yemen"
 },
 {
   "FIELD1": 11009,
   "name": "San Marino",
   "lat": 43.9458623,
   "lon": 12.458306,
   "date": "2020-01-23",
   "value": 0,
   "deaths": 0,
   "recovered": 0,
   "category": "San Marino"
 },
 {
   "FIELD1": 2065,
   "name": "Burkina Faso",
   "lat": 12.0753083,
   "lon": -1.6880314,
   "date": "2020-01-23",
   "value": 0,
   "deaths": 0,
   "recovered": 0,
   "category": "Burkina Faso"
 },
 {
   "FIELD1": 11611,
   "name": "Slovenia",
   "lat": 45.8133113,
   "lon": 14.4808369,
   "date": "2020-01-23",
   "value": 0,
   "deaths": 0,
   "recovered": 0,
   "category": "Slovenia"
 },
 {
   "FIELD1": 4215,
   "name": "Equatorial Guinea",
   "lat": 1.613172,
   "lon": 10.5170357,
   "date": "2020-01-23",
   "value": 0,
   "deaths": 0,
   "recovered": 0,
   "category": "Equatorial Guinea"
 },
 {
   "FIELD1": 5849,
   "name": "Honduras",
   "lat": 15.2572432,
   "lon": -86.0755145,
   "date": "2020-01-23",
   "value": 0,
   "deaths": 0,
   "recovered": 0,
   "category": "Honduras"
 },
 {
   "FIELD1": 8859,
   "name": "Morocco",
   "lat": 31.1728205,
   "lon": -7.3362482,
   "date": "2020-01-23",
   "value": 0,
   "deaths": 0,
   "recovered": 0,
   "category": "Morocco"
 },
 {
   "FIELD1": 3785,
   "name": "Djibouti",
   "lat": 11.8145966,
   "lon": 42.8453061,
   "date": "2020-01-23",
   "value": 0,
   "deaths": 0,
   "recovered": 0,
   "category": "Djibouti"
 },
 {
   "FIELD1": 1893,
   "name": "Brunei",
   "lat": 4.4137155,
   "lon": 114.5653908,
   "date": "2020-01-23",
   "value": 0,
   "deaths": 0,
   "recovered": 0,
   "category": "Brunei"
 },
 {
   "FIELD1": 13847,
   "name": "Zimbabwe",
   "lat": -18.4554963,
   "lon": 29.7468414,
   "date": "2020-01-23",
   "value": 0,
   "deaths": 0,
   "recovered": 0,
   "category": "Zimbabwe"
 },
 {
   "FIELD1": 775,
   "name": "Austria",
   "lat": 47.2000338,
   "lon": 13.199959,
   "date": "2020-01-23",
   "value": 0,
   "deaths": 0,
   "recovered": 0,
   "category": "Austria"
 },
 {
   "FIELD1": 1635,
   "name": "Bolivia",
   "lat": -17.0568696,
   "lon": -64.9912286,
   "date": "2020-01-23",
   "value": 0,
   "deaths": 0,
   "recovered": 0,
   "category": "Bolivia"
 },
 {
   "FIELD1": 8687,
   "name": "Mongolia",
   "lat": 46.8250388,
   "lon": 103.8499736,
   "date": "2020-01-23",
   "value": 0,
   "deaths": 0,
   "recovered": 0,
   "category": "Mongolia"
 },
 {
   "FIELD1": 9719,
   "name": "Oman",
   "lat": 21.0000287,
   "lon": 57.0036901,
   "date": "2020-01-23",
   "value": 0,
   "deaths": 0,
   "recovered": 0,
   "category": "Oman"
 },
 {
   "FIELD1": 1807,
   "name": "Brazil",
   "lat": -10.3333333,
   "lon": -53.2,
   "date": "2020-01-23",
   "value": 0,
   "deaths": 0,
   "recovered": 0,
   "category": "Brazil"
 },
 {
   "FIELD1": 4903,
   "name": "Gabon",
   "lat": -0.8999695,
   "lon": 11.6899699,
   "date": "2020-01-23",
   "value": 0,
   "deaths": 0,
   "recovered": 0,
   "category": "Gabon"
 },
 {
   "FIELD1": 14191,
   "name": "Syria",
   "lat": 34.6401861,
   "lon": 39.0494106,
   "date": "2020-01-23",
   "value": 0,
   "deaths": 0,
   "recovered": 0,
   "category": "Syria"
 },
 {
   "FIELD1": 11955,
   "name": "Sri Lanka",
   "lat": 7.5554942,
   "lon": 80.7137847,
   "date": "2020-01-23",
   "value": 0,
   "deaths": 0,
   "recovered": 0,
   "category": "Sri Lanka"
 },
 {
   "FIELD1": 3011,
   "name": "Congo (Kinshasa)",
   "lat": -2.9814344,
   "lon": 23.8222636,
   "date": "2020-01-23",
   "value": 0,
   "deaths": 0,
   "recovered": 0,
   "category": "Congo (Kinshasa)"
 },
 {
   "FIELD1": 3871,
   "name": "Dominican Republic",
   "lat": 19.0974031,
   "lon": -70.3028026,
   "date": "2020-01-23",
   "value": 0,
   "deaths": 0,
   "recovered": 0,
   "category": "Dominican Republic"
 },
 {
   "FIELD1": 3183,
   "name": "Cote d'Ivoire",
   "lat": 7.9897371,
   "lon": -5.5679458,
   "date": "2020-01-23",
   "value": 0,
   "deaths": 0,
   "recovered": 0,
   "category": "Cote d'Ivoire"
 },
 {
   "FIELD1": 13675,
   "name": "Vietnam",
   "lat": 13.2904027,
   "lon": 108.4265113,
   "date": "2020-01-23",
   "value": 2,
   "deaths": 0,
   "recovered": 0,
   "category": "Vietnam"
 },
 {
   "FIELD1": 15137,
   "name": "MS Zaandam",
   "lat": 52.4387696,
   "lon": 4.8185293,
   "date": "2020-01-23",
   "value": 0,
   "deaths": 0,
   "recovered": 0,
   "category": "MS Zaandam"
 },
 {
   "FIELD1": 6967,
   "name": "Kazakhstan",
   "lat": 47.2286086,
   "lon": 65.2093197,
   "date": "2020-01-23",
   "value": 0,
   "deaths": 0,
   "recovered": 0,
   "category": "Kazakhstan"
 },
 {
   "FIELD1": 3097,
   "name": "Costa Rica",
   "lat": 10.2735633,
   "lon": -84.0739102,
   "date": "2020-01-23",
   "value": 0,
   "deaths": 0,
   "recovered": 0,
   "category": "Costa Rica"
 },
 {
   "FIELD1": 6193,
   "name": "Indonesia",
   "lat": -2.4833826,
   "lon": 117.8902853,
   "date": "2020-01-23",
   "value": 0,
   "deaths": 0,
   "recovered": 0,
   "category": "Indonesia"
 },
 {
   "FIELD1": 6107,
   "name": "India",
   "lat": 22.3511148,
   "lon": 78.6677428,
   "date": "2020-01-23",
   "value": 0,
   "deaths": 0,
   "recovered": 0,
   "category": "India"
 },
 {
   "FIELD1": 10923,
   "name": "Saint Vincent and the Grenadines",
   "lat": 12.90447,
   "lon": -61.2765569,
   "date": "2020-01-23",
   "value": 0,
   "deaths": 0,
   "recovered": 0,
   "category": "Saint Vincent and the Grenadines"
 },
 {
   "FIELD1": 9977,
   "name": "Papua New Guinea",
   "lat": -5.6816069,
   "lon": 144.2489081,
   "date": "2020-01-23",
   "value": 0,
   "deaths": 0,
   "recovered": 0,
   "category": "Papua New Guinea"
 },
 {
   "FIELD1": 2237,
   "name": "Cambodia",
   "lat": 13.5066394,
   "lon": 104.869423,
   "date": "2020-01-23",
   "value": 0,
   "deaths": 0,
   "recovered": 0,
   "category": "Cambodia"
 },
 {
   "FIELD1": 5935,
   "name": "Hungary",
   "lat": 47.1817585,
   "lon": 19.5060937,
   "date": "2020-01-23",
   "value": 0,
   "deaths": 0,
   "recovered": 0,
   "category": "Hungary"
 },
 {
   "FIELD1": 173,
   "name": "Algeria",
   "lat": 28.0000272,
   "lon": 2.9999825,
   "date": "2020-01-23",
   "value": 0,
   "deaths": 0,
   "recovered": 0,
   "category": "Algeria"
 },
 {
   "FIELD1": 947,
   "name": "Bahamas",
   "lat": 24.7736546,
   "lon": -78.0000547,
   "date": "2020-01-23",
   "value": 0,
   "deaths": 0,
   "recovered": 0,
   "category": "Bahamas"
 },
 {
   "FIELD1": 1721,
   "name": "Bosnia and Herzegovina",
   "lat": 44.3053476,
   "lon": 17.5961467,
   "date": "2020-01-23",
   "value": 0,
   "deaths": 0,
   "recovered": 0,
   "category": "Bosnia and Herzegovina"
 },
 {
   "FIELD1": 1979,
   "name": "Bulgaria",
   "lat": 42.6073975,
   "lon": 25.4856617,
   "date": "2020-01-23",
   "value": 0,
   "deaths": 0,
   "recovered": 0,
   "category": "Bulgaria"
 },
 {
   "FIELD1": 10063,
   "name": "Paraguay",
   "lat": -23.3165935,
   "lon": -58.1693445,
   "date": "2020-01-23",
   "value": 0,
   "deaths": 0,
   "recovered": 0,
   "category": "Paraguay"
 },
 {
   "FIELD1": 12729,
   "name": "Trinidad and Tobago",
   "lat": 10.8677845,
   "lon": -60.9821067,
   "date": "2020-01-23",
   "value": 0,
   "deaths": 0,
   "recovered": 0,
   "category": "Trinidad and Tobago"
 },
 {
   "FIELD1": 7827,
   "name": "Luxembourg",
   "lat": 49.8158683,
   "lon": 6.1296751,
   "date": "2020-01-23",
   "value": 0,
   "deaths": 0,
   "recovered": 0,
   "category": "Luxembourg"
 },
 {
   "FIELD1": 7053,
   "name": "Kenya",
   "lat": 1.4419683,
   "lon": 38.4313975,
   "date": "2020-01-23",
   "value": 0,
   "deaths": 0,
   "recovered": 0,
   "category": "Kenya"
 },
 {
   "FIELD1": 3957,
   "name": "Ecuador",
   "lat": -1.3397668,
   "lon": -79.3666965,
   "date": "2020-01-23",
   "value": 0,
   "deaths": 0,
   "recovered": 0,
   "category": "Ecuador"
 },
 {
   "FIELD1": 6279,
   "name": "Iran",
   "lat": 32.6475314,
   "lon": 54.5643516,
   "date": "2020-01-23",
   "value": 0,
   "deaths": 0,
   "recovered": 0,
   "category": "Iran"
 },
 {
   "FIELD1": 861,
   "name": "Azerbaijan",
   "lat": 40.3936294,
   "lon": 47.7872508,
   "date": "2020-01-23",
   "value": 0,
   "deaths": 0,
   "recovered": 0,
   "category": "Azerbaijan"
 },
 {
   "FIELD1": 14019,
   "name": "Grenada",
   "lat": 12.1360374,
   "lon": -61.6904045,
   "date": "2020-01-23",
   "value": 0,
   "deaths": 0,
   "recovered": 0,
   "category": "Grenada"
 },
 {
   "FIELD1": 13589,
   "name": "Venezuela",
   "lat": 8.0018709,
   "lon": -66.1109318,
   "date": "2020-01-23",
   "value": 0,
   "deaths": 0,
   "recovered": 0,
   "category": "Venezuela"
 },
 {
   "FIELD1": 2323,
   "name": "Cameroon",
   "lat": 4.6125522,
   "lon": 13.1535811,
   "date": "2020-01-23",
   "value": 0,
   "deaths": 0,
   "recovered": 0,
   "category": "Cameroon"
 },
 {
   "FIELD1": 2151,
   "name": "Cabo Verde",
   "lat": 16.0000552,
   "lon": -24.0083947,
   "date": "2020-01-23",
   "value": 0,
   "deaths": 0,
   "recovered": 0,
   "category": "Cabo Verde"
 },
 {
   "FIELD1": 4989,
   "name": "Gambia",
   "lat": 13.470062,
   "lon": -15.4900464,
   "date": "2020-01-23",
   "value": 0,
   "deaths": 0,
   "recovered": 0,
   "category": "Gambia"
 },
 {
   "FIELD1": 10837,
   "name": "Saint Lucia",
   "lat": 13.8250489,
   "lon": -60.975036,
   "date": "2020-01-23",
   "value": 0,
   "deaths": 0,
   "recovered": 0,
   "category": "Saint Lucia"
 },
 {
   "FIELD1": 11869,
   "name": "Spain",
   "lat": 39.3262345,
   "lon": -4.8380649,
   "date": "2020-01-23",
   "value": 0,
   "deaths": 0,
   "recovered": 0,
   "category": "Spain"
 },
 {
   "FIELD1": 3699,
   "name": "Denmark",
   "lat": 55.670249,
   "lon": 10.3333283,
   "date": "2020-01-23",
   "value": 0,
   "deaths": 0,
   "recovered": 0,
   "category": "Denmark"
 },
 {
   "FIELD1": 4129,
   "name": "El Salvador",
   "lat": 13.8000382,
   "lon": -88.9140683,
   "date": "2020-01-23",
   "value": 0,
   "deaths": 0,
   "recovered": 0,
   "category": "El Salvador"
 },
 {
   "FIELD1": 12127,
   "name": "Suriname",
   "lat": 4.1413025,
   "lon": -56.0771187,
   "date": "2020-01-23",
   "value": 0,
   "deaths": 0,
   "recovered": 0,
   "category": "Suriname"
 },
 {
   "FIELD1": 12815,
   "name": "Tunisia",
   "lat": 33.8439408,
   "lon": 9.400138,
   "date": "2020-01-23",
   "value": 0,
   "deaths": 0,
   "recovered": 0,
   "category": "Tunisia"
 },
 {
   "FIELD1": 11697,
   "name": "Somalia",
   "lat": 8.3676771,
   "lon": 49.083416,
   "date": "2020-01-23",
   "value": 0,
   "deaths": 0,
   "recovered": 0,
   "category": "Somalia"
 },
 {
   "FIELD1": 1,
   "name": "Afghanistan",
   "lat": 33.7680065,
   "lon": 66.2385139,
   "date": "2020-01-23",
   "value": 0,
   "deaths": 0,
   "recovered": 0,
   "category": "Afghanistan"
 },
 {
   "FIELD1": 7139,
   "name": "Korea, South",
   "lat": 35.7724185,
   "lon": 127.79654346305617,
   "date": "2020-01-23",
   "value": 1,
   "deaths": 0,
   "recovered": 0,
   "category": "Korea, South"
 },
 {
   "FIELD1": 13761,
   "name": "Zambia",
   "lat": -14.5186239,
   "lon": 27.5599164,
   "date": "2020-01-23",
   "value": 0,
   "deaths": 0,
   "recovered": 0,
   "category": "Zambia"
 },
 {
   "FIELD1": 7913,
   "name": "Madagascar",
   "lat": -18.9249604,
   "lon": 46.4416422,
   "date": "2020-01-23",
   "value": 0,
   "deaths": 0,
   "recovered": 0,
   "category": "Madagascar"
 },
 {
   "FIELD1": 6021,
   "name": "Iceland",
   "lat": 64.9841821,
   "lon": -18.1059013,
   "date": "2020-01-23",
   "value": 0,
   "deaths": 0,
   "recovered": 0,
   "category": "Iceland"
 },
 {
   "FIELD1": 4731,
   "name": "Finland",
   "lat": 63.2467777,
   "lon": 25.9209164,
   "date": "2020-01-23",
   "value": 0,
   "deaths": 0,
   "recovered": 0,
   "category": "Finland"
 },
 {
   "FIELD1": 259,
   "name": "Andorra",
   "lat": 42.5407167,
   "lon": 1.5732033,
   "date": "2020-01-23",
   "value": 0,
   "deaths": 0,
   "recovered": 0,
   "category": "Andorra"
 },
 {
   "FIELD1": 11783,
   "name": "South Africa",
   "lat": -28.8166236,
   "lon": 24.991639,
   "date": "2020-01-23",
   "value": 0,
   "deaths": 0,
   "recovered": 0,
   "category": "South Africa"
 },
 {
   "FIELD1": 13933,
   "name": "Dominica",
   "lat": 19.0974031,
   "lon": -70.3028026,
   "date": "2020-01-23",
   "value": 0,
   "deaths": 0,
   "recovered": 0,
   "category": "Dominica"
 },
 {
   "FIELD1": 8773,
   "name": "Montenegro",
   "lat": 42.9868853,
   "lon": 19.5180992,
   "date": "2020-01-23",
   "value": 0,
   "deaths": 0,
   "recovered": 0,
   "category": "Montenegro"
 },
 {
   "FIELD1": 9633,
   "name": "Norway",
   "lat": 64.5731537,
   "lon": 11.52803643954819,
   "date": "2020-01-23",
   "value": 0,
   "deaths": 0,
   "recovered": 0,
   "category": "Norway"
 },
 {
   "FIELD1": 7741,
   "name": "Lithuania",
   "lat": 55.3500003,
   "lon": 23.7499997,
   "date": "2020-01-23",
   "value": 0,
   "deaths": 0,
   "recovered": 0,
   "category": "Lithuania"
 },
 {
   "FIELD1": 14965,
   "name": "Kosovo",
   "lat": 42.5869578,
   "lon": 20.9021231,
   "date": "2020-01-23",
   "value": 0,
   "deaths": 0,
   "recovered": 0,
   "category": "Kosovo"
 },
 {
   "FIELD1": 14277,
   "name": "Timor-Leste",
   "lat": -8.5151979,
   "lon": 125.8375756,
   "date": "2020-01-23",
   "value": 0,
   "deaths": 0,
   "recovered": 0,
   "category": "Timor-Leste"
 },
 {
   "FIELD1": 15653,
   "name": "Western Sahara",
   "lat": 24.1797324,
   "lon": -13.7667848,
   "date": "2020-01-23",
   "value": 0,
   "deaths": 0,
   "recovered": 0,
   "category": "Western Sahara"
 },
 {
   "FIELD1": 4043,
   "name": "Egypt",
   "lat": 26.2540493,
   "lon": 29.2675469,
   "date": "2020-01-23",
   "value": 0,
   "deaths": 0,
   "recovered": 0,
   "category": "Egypt"
 },
 {
   "FIELD1": 15051,
   "name": "Burma",
   "lat": 17.1750495,
   "lon": 95.9999652,
   "date": "2020-01-23",
   "value": 0,
   "deaths": 0,
   "recovered": 0,
   "category": "Burma"
 },
 {
   "FIELD1": 7999,
   "name": "Malaysia",
   "lat": 4.5693754,
   "lon": 102.2656823,
   "date": "2020-01-23",
   "value": 0,
   "deaths": 0,
   "recovered": 0,
   "category": "Malaysia"
 },
 {
   "FIELD1": 12041,
   "name": "Sudan",
   "lat": 14.5844444,
   "lon": 29.4917691,
   "date": "2020-01-23",
   "value": 0,
   "deaths": 0,
   "recovered": 0,
   "category": "Sudan"
 },
 {
   "FIELD1": 9891,
   "name": "Panama",
   "lat": 8.559559,
   "lon": -81.1308434,
   "date": "2020-01-23",
   "value": 0,
   "deaths": 0,
   "recovered": 0,
   "category": "Panama"
 },
 {
   "FIELD1": 4817,
   "name": "France",
   "lat": 46.603354,
   "lon": 1.8883335,
   "date": "2020-01-23",
   "value": 0,
   "deaths": 0,
   "recovered": 0,
   "category": "France"
 },
 {
   "FIELD1": 8000,
   "name": "Malaysia",
   "lat": 4.5693754,
   "lon": 102.2656823,
   "date": "2020-01-24",
   "value": 0,
   "deaths": 0,
   "recovered": 0,
   "category": "Malaysia"
 },
 {
   "FIELD1": 9978,
   "name": "Papua New Guinea",
   "lat": -5.6816069,
   "lon": 144.2489081,
   "date": "2020-01-24",
   "value": 0,
   "deaths": 0,
   "recovered": 0,
   "category": "Papua New Guinea"
 },
 {
   "FIELD1": 12386,
   "name": "Taiwan*",
   "lat": 23.9739374,
   "lon": 120.9820179,
   "date": "2020-01-24",
   "value": 3,
   "deaths": 0,
   "recovered": 0,
   "category": "Taiwan*"
 },
 {
   "FIELD1": 7398,
   "name": "Latvia",
   "lat": 56.8406494,
   "lon": 24.7537645,
   "date": "2020-01-24",
   "value": 0,
   "deaths": 0,
   "recovered": 0,
   "category": "Latvia"
 },
 {
   "FIELD1": 7742,
   "name": "Lithuania",
   "lat": 55.3500003,
   "lon": 23.7499997,
   "date": "2020-01-24",
   "value": 0,
   "deaths": 0,
   "recovered": 0,
   "category": "Lithuania"
 },
 {
   "FIELD1": 6538,
   "name": "Israel",
   "lat": 31.5313113,
   "lon": 34.8667654,
   "date": "2020-01-24",
   "value": 0,
   "deaths": 0,
   "recovered": 0,
   "category": "Israel"
 },
 {
   "FIELD1": 13160,
   "name": "United Arab Emirates",
   "lat": 24.0002488,
   "lon": 53.9994829,
   "date": "2020-01-24",
   "value": 0,
   "deaths": 0,
   "recovered": 0,
   "category": "United Arab Emirates"
 },
 {
   "FIELD1": 4560,
   "name": "Ethiopia",
   "lat": 10.2116702,
   "lon": 38.6521203,
   "date": "2020-01-24",
   "value": 0,
   "deaths": 0,
   "recovered": 0,
   "category": "Ethiopia"
 },
 {
   "FIELD1": 5076,
   "name": "Georgia",
   "lat": 32.3293809,
   "lon": -83.1137366,
   "date": "2020-01-24",
   "value": 0,
   "deaths": 0,
   "recovered": 0,
   "category": "Georgia"
 },
 {
   "FIELD1": 13762,
   "name": "Zambia",
   "lat": -14.5186239,
   "lon": 27.5599164,
   "date": "2020-01-24",
   "value": 0,
   "deaths": 0,
   "recovered": 0,
   "category": "Zambia"
 },
 {
   "FIELD1": 8688,
   "name": "Mongolia",
   "lat": 46.8250388,
   "lon": 103.8499736,
   "date": "2020-01-24",
   "value": 0,
   "deaths": 0,
   "recovered": 0,
   "category": "Mongolia"
 },
 {
   "FIELD1": 12730,
   "name": "Trinidad and Tobago",
   "lat": 10.8677845,
   "lon": -60.9821067,
   "date": "2020-01-24",
   "value": 0,
   "deaths": 0,
   "recovered": 0,
   "category": "Trinidad and Tobago"
 },
 {
   "FIELD1": 9032,
   "name": "Nepal",
   "lat": 28.1083929,
   "lon": 84.0917139,
   "date": "2020-01-24",
   "value": 0,
   "deaths": 0,
   "recovered": 0,
   "category": "Nepal"
 },
 {
   "FIELD1": 4646,
   "name": "Fiji",
   "lat": -18.1239696,
   "lon": 179.0122737,
   "date": "2020-01-24",
   "value": 0,
   "deaths": 0,
   "recovered": 0,
   "category": "Fiji"
 },
 {
   "FIELD1": 6968,
   "name": "Kazakhstan",
   "lat": 47.2286086,
   "lon": 65.2093197,
   "date": "2020-01-24",
   "value": 0,
   "deaths": 0,
   "recovered": 0,
   "category": "Kazakhstan"
 },
 {
   "FIELD1": 6796,
   "name": "Japan",
   "lat": 36.5748441,
   "lon": 139.2394179,
   "date": "2020-01-24",
   "value": 2,
   "deaths": 0,
   "recovered": 0,
   "category": "Japan"
 },
 {
   "FIELD1": 8344,
   "name": "Mauritius",
   "lat": -20.2759451,
   "lon": 57.5703566,
   "date": "2020-01-24",
   "value": 0,
   "deaths": 0,
   "recovered": 0,
   "category": "Mauritius"
 },
 {
   "FIELD1": 6108,
   "name": "India",
   "lat": 22.3511148,
   "lon": 78.6677428,
   "date": "2020-01-24",
   "value": 0,
   "deaths": 0,
   "recovered": 0,
   "category": "India"
 },
 {
   "FIELD1": 5334,
   "name": "Greece",
   "lat": 38.9953683,
   "lon": 21.9877132,
   "date": "2020-01-24",
   "value": 0,
   "deaths": 0,
   "recovered": 0,
   "category": "Greece"
 },
 {
   "FIELD1": 14536,
   "name": "Libya",
   "lat": 26.8234472,
   "lon": 18.1236723,
   "date": "2020-01-24",
   "value": 0,
   "deaths": 0,
   "recovered": 0,
   "category": "Libya"
 },
 {
   "FIELD1": 11870,
   "name": "Spain",
   "lat": 39.3262345,
   "lon": -4.8380649,
   "date": "2020-01-24",
   "value": 0,
   "deaths": 0,
   "recovered": 0,
   "category": "Spain"
 },
 {
   "FIELD1": 2582,
   "name": "Chad",
   "lat": 15.6134137,
   "lon": 19.0156172,
   "date": "2020-01-24",
   "value": 0,
   "deaths": 0,
   "recovered": 0,
   "category": "Chad"
 },
 {
   "FIELD1": 14106,
   "name": "Mozambique",
   "lat": -19.302233,
   "lon": 34.9144977,
   "date": "2020-01-24",
   "value": 0,
   "deaths": 0,
   "recovered": 0,
   "category": "Mozambique"
 },
 {
   "FIELD1": 4904,
   "name": "Gabon",
   "lat": -0.8999695,
   "lon": 11.6899699,
   "date": "2020-01-24",
   "value": 0,
   "deaths": 0,
   "recovered": 0,
   "category": "Gabon"
 },
 {
   "FIELD1": 1980,
   "name": "Bulgaria",
   "lat": 42.6073975,
   "lon": 25.4856617,
   "date": "2020-01-24",
   "value": 0,
   "deaths": 0,
   "recovered": 0,
   "category": "Bulgaria"
 },
 {
   "FIELD1": 8774,
   "name": "Montenegro",
   "lat": 42.9868853,
   "lon": 19.5180992,
   "date": "2020-01-24",
   "value": 0,
   "deaths": 0,
   "recovered": 0,
   "category": "Montenegro"
 },
 {
   "FIELD1": 1206,
   "name": "Barbados",
   "lat": 13.1500331,
   "lon": -59.5250305,
   "date": "2020-01-24",
   "value": 0,
   "deaths": 0,
   "recovered": 0,
   "category": "Barbados"
 },
 {
   "FIELD1": 4044,
   "name": "Egypt",
   "lat": 26.2540493,
   "lon": 29.2675469,
   "date": "2020-01-24",
   "value": 0,
   "deaths": 0,
   "recovered": 0,
   "category": "Egypt"
 },
 {
   "FIELD1": 13074,
   "name": "Ukraine",
   "lat": 49.4871968,
   "lon": 31.2718321,
   "date": "2020-01-24",
   "value": 0,
   "deaths": 0,
   "recovered": 0,
   "category": "Ukraine"
 },
 {
   "FIELD1": 6624,
   "name": "Italy",
   "lat": 42.6384261,
   "lon": 12.674297,
   "date": "2020-01-24",
   "value": 0,
   "deaths": 0,
   "recovered": 0,
   "category": "Italy"
 },
 {
   "FIELD1": 11182,
   "name": "Senegal",
   "lat": 14.4750607,
   "lon": -14.4529612,
   "date": "2020-01-24",
   "value": 0,
   "deaths": 0,
   "recovered": 0,
   "category": "Senegal"
 },
 {
   "FIELD1": 5248,
   "name": "Ghana",
   "lat": 8.0300284,
   "lon": -1.0800271,
   "date": "2020-01-24",
   "value": 0,
   "deaths": 0,
   "recovered": 0,
   "category": "Ghana"
 },
 {
   "FIELD1": 11784,
   "name": "South Africa",
   "lat": -28.8166236,
   "lon": 24.991639,
   "date": "2020-01-24",
   "value": 0,
   "deaths": 0,
   "recovered": 0,
   "category": "South Africa"
 },
 {
   "FIELD1": 7054,
   "name": "Kenya",
   "lat": 1.4419683,
   "lon": 38.4313975,
   "date": "2020-01-24",
   "value": 0,
   "deaths": 0,
   "recovered": 0,
   "category": "Kenya"
 },
 {
   "FIELD1": 14020,
   "name": "Grenada",
   "lat": 12.1360374,
   "lon": -61.6904045,
   "date": "2020-01-24",
   "value": 0,
   "deaths": 0,
   "recovered": 0,
   "category": "Grenada"
 },
 {
   "FIELD1": 2668,
   "name": "Chile",
   "lat": -31.7613365,
   "lon": -71.3187697,
   "date": "2020-01-24",
   "value": 0,
   "deaths": 0,
   "recovered": 0,
   "category": "Chile"
 },
 {
   "FIELD1": 10580,
   "name": "Romania",
   "lat": 45.9852129,
   "lon": 24.6859225,
   "date": "2020-01-24",
   "value": 0,
   "deaths": 0,
   "recovered": 0,
   "category": "Romania"
 },
 {
   "FIELD1": 12472,
   "name": "Tanzania",
   "lat": -6.5247123,
   "lon": 35.7878438,
   "date": "2020-01-24",
   "value": 0,
   "deaths": 0,
   "recovered": 0,
   "category": "Tanzania"
 },
 {
   "FIELD1": 8430,
   "name": "Mexico",
   "lat": 19.4326296,
   "lon": -99.1331785,
   "date": "2020-01-24",
   "value": 0,
   "deaths": 0,
   "recovered": 0,
   "category": "Mexico"
 },
 {
   "FIELD1": 12558,
   "name": "Thailand",
   "lat": 14.8971921,
   "lon": 100.83273,
   "date": "2020-01-24",
   "value": 5,
   "deaths": 0,
   "recovered": 0,
   "category": "Thailand"
 },
 {
   "FIELD1": 11268,
   "name": "Serbia",
   "lat": 44.024322850000004,
   "lon": 21.07657433209902,
   "date": "2020-01-24",
   "value": 0,
   "deaths": 0,
   "recovered": 0,
   "category": "Serbia"
 },
 {
   "FIELD1": 12816,
   "name": "Tunisia",
   "lat": 33.8439408,
   "lon": 9.400138,
   "date": "2020-01-24",
   "value": 0,
   "deaths": 0,
   "recovered": 0,
   "category": "Tunisia"
 },
 {
   "FIELD1": 9118,
   "name": "Netherlands",
   "lat": 52.5001698,
   "lon": 5.7480821,
   "date": "2020-01-24",
   "value": 0,
   "deaths": 0,
   "recovered": 0,
   "category": "Netherlands"
 },
 {
   "FIELD1": 9892,
   "name": "Panama",
   "lat": 8.559559,
   "lon": -81.1308434,
   "date": "2020-01-24",
   "value": 0,
   "deaths": 0,
   "recovered": 0,
   "category": "Panama"
 },
 {
   "FIELD1": 7914,
   "name": "Madagascar",
   "lat": -18.9249604,
   "lon": 46.4416422,
   "date": "2020-01-24",
   "value": 0,
   "deaths": 0,
   "recovered": 0,
   "category": "Madagascar"
 },
 {
   "FIELD1": 1120,
   "name": "Bangladesh",
   "lat": 24.4768783,
   "lon": 90.2932426,
   "date": "2020-01-24",
   "value": 0,
   "deaths": 0,
   "recovered": 0,
   "category": "Bangladesh"
 },
 {
   "FIELD1": 7312,
   "name": "Kyrgyzstan",
   "lat": 41.5089324,
   "lon": 74.724091,
   "date": "2020-01-24",
   "value": 0,
   "deaths": 0,
   "recovered": 0,
   "category": "Kyrgyzstan"
 },
 {
   "FIELD1": 6022,
   "name": "Iceland",
   "lat": 64.9841821,
   "lon": -18.1059013,
   "date": "2020-01-24",
   "value": 0,
   "deaths": 0,
   "recovered": 0,
   "category": "Iceland"
 },
 {
   "FIELD1": 13848,
   "name": "Zimbabwe",
   "lat": -18.4554963,
   "lon": 29.7468414,
   "date": "2020-01-24",
   "value": 0,
   "deaths": 0,
   "recovered": 0,
   "category": "Zimbabwe"
 },
 {
   "FIELD1": 14622,
   "name": "West Bank and Gaza",
   "lat": 31.4331663,
   "lon": 34.3779285,
   "date": "2020-01-24",
   "value": 0,
   "deaths": 0,
   "recovered": 0,
   "category": "West Bank and Gaza"
 },
 {
   "FIELD1": 5850,
   "name": "Honduras",
   "lat": 15.2572432,
   "lon": -86.0755145,
   "date": "2020-01-24",
   "value": 0,
   "deaths": 0,
   "recovered": 0,
   "category": "Honduras"
 },
 {
   "FIELD1": 11354,
   "name": "Seychelles",
   "lat": -4.6574977,
   "lon": 55.4540146,
   "date": "2020-01-24",
   "value": 0,
   "deaths": 0,
   "recovered": 0,
   "category": "Seychelles"
 },
 {
   "FIELD1": 11956,
   "name": "Sri Lanka",
   "lat": 7.5554942,
   "lon": 80.7137847,
   "date": "2020-01-24",
   "value": 0,
   "deaths": 0,
   "recovered": 0,
   "category": "Sri Lanka"
 },
 {
   "FIELD1": 4474,
   "name": "Eswatini",
   "lat": -26.5624806,
   "lon": 31.3991317,
   "date": "2020-01-24",
   "value": 0,
   "deaths": 0,
   "recovered": 0,
   "category": "Eswatini"
 },
 {
   "FIELD1": 14794,
   "name": "Mali",
   "lat": 16.3700359,
   "lon": -2.2900239,
   "date": "2020-01-24",
   "value": 0,
   "deaths": 0,
   "recovered": 0,
   "category": "Mali"
 },
 {
   "FIELD1": 3872,
   "name": "Dominican Republic",
   "lat": 19.0974031,
   "lon": -70.3028026,
   "date": "2020-01-24",
   "value": 0,
   "deaths": 0,
   "recovered": 0,
   "category": "Dominican Republic"
 },
 {
   "FIELD1": 9204,
   "name": "New Zealand",
   "lat": -41.5000831,
   "lon": 172.8344077,
   "date": "2020-01-24",
   "value": 0,
   "deaths": 0,
   "recovered": 0,
   "category": "New Zealand"
 },
 {
   "FIELD1": 1808,
   "name": "Brazil",
   "lat": -10.3333333,
   "lon": -53.2,
   "date": "2020-01-24",
   "value": 0,
   "deaths": 0,
   "recovered": 0,
   "category": "Brazil"
 },
 {
   "FIELD1": 862,
   "name": "Azerbaijan",
   "lat": 40.3936294,
   "lon": 47.7872508,
   "date": "2020-01-24",
   "value": 0,
   "deaths": 0,
   "recovered": 0,
   "category": "Azerbaijan"
 },
 {
   "FIELD1": 8516,
   "name": "Moldova",
   "lat": 47.2879608,
   "lon": 28.5670941,
   "date": "2020-01-24",
   "value": 0,
   "deaths": 0,
   "recovered": 0,
   "category": "Moldova"
 },
 {
   "FIELD1": 1292,
   "name": "Belarus",
   "lat": 53.4250605,
   "lon": 27.6971358,
   "date": "2020-01-24",
   "value": 0,
   "deaths": 0,
   "recovered": 0,
   "category": "Belarus"
 },
 {
   "FIELD1": 10924,
   "name": "Saint Vincent and the Grenadines",
   "lat": 12.90447,
   "lon": -61.2765569,
   "date": "2020-01-24",
   "value": 0,
   "deaths": 0,
   "recovered": 0,
   "category": "Saint Vincent and the Grenadines"
 },
 {
   "FIELD1": 2066,
   "name": "Burkina Faso",
   "lat": 12.0753083,
   "lon": -1.6880314,
   "date": "2020-01-24",
   "value": 0,
   "deaths": 0,
   "recovered": 0,
   "category": "Burkina Faso"
 },
 {
   "FIELD1": 9720,
   "name": "Oman",
   "lat": 21.0000287,
   "lon": 57.0036901,
   "date": "2020-01-24",
   "value": 0,
   "deaths": 0,
   "recovered": 0,
   "category": "Oman"
 },
 {
   "FIELD1": 4818,
   "name": "France",
   "lat": 46.603354,
   "lon": 1.8883335,
   "date": "2020-01-24",
   "value": 2,
   "deaths": 0,
   "recovered": 0,
   "category": "France"
 },
 {
   "FIELD1": 7226,
   "name": "Kuwait",
   "lat": 29.2733964,
   "lon": 47.4979476,
   "date": "2020-01-24",
   "value": 0,
   "deaths": 0,
   "recovered": 0,
   "category": "Kuwait"
 },
 {
   "FIELD1": 15396,
   "name": "Sierra Leone",
   "lat": 8.6400349,
   "lon": -11.8400269,
   "date": "2020-01-24",
   "value": 0,
   "deaths": 0,
   "recovered": 0,
   "category": "Sierra Leone"
 },
 {
   "FIELD1": 88,
   "name": "Albania",
   "lat": 41.000028,
   "lon": 19.9999619,
   "date": "2020-01-24",
   "value": 0,
   "deaths": 0,
   "recovered": 0,
   "category": "Albania"
 },
 {
   "FIELD1": 11010,
   "name": "San Marino",
   "lat": 43.9458623,
   "lon": 12.458306,
   "date": "2020-01-24",
   "value": 0,
   "deaths": 0,
   "recovered": 0,
   "category": "San Marino"
 },
 {
   "FIELD1": 15826,
   "name": "Yemen",
   "lat": 16.3471243,
   "lon": 47.8915271,
   "date": "2020-01-24",
   "value": 0,
   "deaths": 0,
   "recovered": 0,
   "category": "Yemen"
 },
 {
   "FIELD1": 1894,
   "name": "Brunei",
   "lat": 4.4137155,
   "lon": 114.5653908,
   "date": "2020-01-24",
   "value": 0,
   "deaths": 0,
   "recovered": 0,
   "category": "Brunei"
 },
 {
   "FIELD1": 3442,
   "name": "Cuba",
   "lat": 23.0131338,
   "lon": -80.8328748,
   "date": "2020-01-24",
   "value": 0,
   "deaths": 0,
   "recovered": 0,
   "category": "Cuba"
 },
 {
   "FIELD1": 518,
   "name": "Argentina",
   "lat": -34.9964963,
   "lon": -64.9672817,
   "date": "2020-01-24",
   "value": 0,
   "deaths": 0,
   "recovered": 0,
   "category": "Argentina"
 },
 {
   "FIELD1": 2840,
   "name": "Colombia",
   "lat": 2.8894434,
   "lon": -73.783892,
   "date": "2020-01-24",
   "value": 0,
   "deaths": 0,
   "recovered": 0,
   "category": "Colombia"
 },
 {
   "FIELD1": 10494,
   "name": "Qatar",
   "lat": 25.3336984,
   "lon": 51.2295295,
   "date": "2020-01-24",
   "value": 0,
   "deaths": 0,
   "recovered": 0,
   "category": "Qatar"
 },
 {
   "FIELD1": 13246,
   "name": "United Kingdom",
   "lat": 54.7023545,
   "lon": -3.2765753,
   "date": "2020-01-24",
   "value": 0,
   "deaths": 0,
   "recovered": 0,
   "category": "United Kingdom"
 },
 {
   "FIELD1": 15482,
   "name": "Malawi",
   "lat": -13.2687204,
   "lon": 33.9301963,
   "date": "2020-01-24",
   "value": 0,
   "deaths": 0,
   "recovered": 0,
   "category": "Malawi"
 },
 {
   "FIELD1": 9462,
   "name": "Nigeria",
   "lat": 9.6000359,
   "lon": 7.9999721,
   "date": "2020-01-24",
   "value": 0,
   "deaths": 0,
   "recovered": 0,
   "category": "Nigeria"
 },
 {
   "FIELD1": 12644,
   "name": "Togo",
   "lat": 8.7800265,
   "lon": 1.0199765,
   "date": "2020-01-24",
   "value": 0,
   "deaths": 0,
   "recovered": 0,
   "category": "Togo"
 },
 {
   "FIELD1": 13504,
   "name": "Uzbekistan",
   "lat": 41.32373,
   "lon": 63.9528098,
   "date": "2020-01-24",
   "value": 0,
   "deaths": 0,
   "recovered": 0,
   "category": "Uzbekistan"
 },
 {
   "FIELD1": 10838,
   "name": "Saint Lucia",
   "lat": 13.8250489,
   "lon": -60.975036,
   "date": "2020-01-24",
   "value": 0,
   "deaths": 0,
   "recovered": 0,
   "category": "Saint Lucia"
 },
 {
   "FIELD1": 6280,
   "name": "Iran",
   "lat": 32.6475314,
   "lon": 54.5643516,
   "date": "2020-01-24",
   "value": 0,
   "deaths": 0,
   "recovered": 0,
   "category": "Iran"
 },
 {
   "FIELD1": 2410,
   "name": "Canada",
   "lat": 61.0666922,
   "lon": -107.9917071,
   "date": "2020-01-24",
   "value": 0,
   "deaths": 0,
   "recovered": 0,
   "category": "Canada"
 },
 {
   "FIELD1": 1636,
   "name": "Bolivia",
   "lat": -17.0568696,
   "lon": -64.9912286,
   "date": "2020-01-24",
   "value": 0,
   "deaths": 0,
   "recovered": 0,
   "category": "Bolivia"
 },
 {
   "FIELD1": 8602,
   "name": "Monaco",
   "lat": 43.7323492,
   "lon": 7.4276832,
   "date": "2020-01-24",
   "value": 0,
   "deaths": 0,
   "recovered": 0,
   "category": "Monaco"
 },
 {
   "FIELD1": 6710,
   "name": "Jamaica",
   "lat": 18.1152958,
   "lon": -77.1598454610168,
   "date": "2020-01-24",
   "value": 0,
   "deaths": 0,
   "recovered": 0,
   "category": "Jamaica"
 },
 {
   "FIELD1": 15568,
   "name": "South Sudan",
   "lat": 7.8699431,
   "lon": 29.6667897,
   "date": "2020-01-24",
   "value": 0,
   "deaths": 0,
   "recovered": 0,
   "category": "South Sudan"
 },
 {
   "FIELD1": 8860,
   "name": "Morocco",
   "lat": 31.1728205,
   "lon": -7.3362482,
   "date": "2020-01-24",
   "value": 0,
   "deaths": 0,
   "recovered": 0,
   "category": "Morocco"
 },
 {
   "FIELD1": 5506,
   "name": "Guinea",
   "lat": 10.7226226,
   "lon": -10.7083587,
   "date": "2020-01-24",
   "value": 0,
   "deaths": 0,
   "recovered": 0,
   "category": "Guinea"
 },
 {
   "FIELD1": 13934,
   "name": "Dominica",
   "lat": 19.0974031,
   "lon": -70.3028026,
   "date": "2020-01-24",
   "value": 0,
   "deaths": 0,
   "recovered": 0,
   "category": "Dominica"
 },
 {
   "FIELD1": 4216,
   "name": "Equatorial Guinea",
   "lat": 1.613172,
   "lon": 10.5170357,
   "date": "2020-01-24",
   "value": 0,
   "deaths": 0,
   "recovered": 0,
   "category": "Equatorial Guinea"
 },
 {
   "FIELD1": 346,
   "name": "Angola",
   "lat": -11.8775768,
   "lon": 17.5691241,
   "date": "2020-01-24",
   "value": 0,
   "deaths": 0,
   "recovered": 0,
   "category": "Angola"
 },
 {
   "FIELD1": 3098,
   "name": "Costa Rica",
   "lat": 10.2735633,
   "lon": -84.0739102,
   "date": "2020-01-24",
   "value": 0,
   "deaths": 0,
   "recovered": 0,
   "category": "Costa Rica"
 },
 {
   "FIELD1": 2926,
   "name": "Congo (Brazzaville)",
   "lat": -0.7264327,
   "lon": 15.6419155,
   "date": "2020-01-24",
   "value": 0,
   "deaths": 0,
   "recovered": 0,
   "category": "Congo (Brazzaville)"
 },
 {
   "FIELD1": 9376,
   "name": "Niger",
   "lat": 17.7356214,
   "lon": 9.3238432,
   "date": "2020-01-24",
   "value": 0,
   "deaths": 0,
   "recovered": 0,
   "category": "Niger"
 },
 {
   "FIELD1": 12902,
   "name": "Turkey",
   "lat": 38.9597594,
   "lon": 34.9249653,
   "date": "2020-01-24",
   "value": 0,
   "deaths": 0,
   "recovered": 0,
   "category": "Turkey"
 },
 {
   "FIELD1": 10150,
   "name": "Peru",
   "lat": -6.8699697,
   "lon": -75.0458515,
   "date": "2020-01-24",
   "value": 0,
   "deaths": 0,
   "recovered": 0,
   "category": "Peru"
 },
 {
   "FIELD1": 3614,
   "name": "Czechia",
   "lat": 49.8167003,
   "lon": 15.4749544,
   "date": "2020-01-24",
   "value": 0,
   "deaths": 0,
   "recovered": 0,
   "category": "Czechia"
 },
 {
   "FIELD1": 9548,
   "name": "North Macedonia",
   "lat": 41.6171214,
   "lon": 21.7168387,
   "date": "2020-01-24",
   "value": 0,
   "deaths": 0,
   "recovered": 0,
   "category": "North Macedonia"
 },
 {
   "FIELD1": 8086,
   "name": "Maldives",
   "lat": 4.7064352,
   "lon": 73.3287853,
   "date": "2020-01-24",
   "value": 0,
   "deaths": 0,
   "recovered": 0,
   "category": "Maldives"
 },
 {
   "FIELD1": 12214,
   "name": "Sweden",
   "lat": 59.6749712,
   "lon": 14.5208584,
   "date": "2020-01-24",
   "value": 0,
   "deaths": 0,
   "recovered": 0,
   "category": "Sweden"
 },
 {
   "FIELD1": 10322,
   "name": "Poland",
   "lat": 52.215933,
   "lon": 19.134422,
   "date": "2020-01-24",
   "value": 0,
   "deaths": 0,
   "recovered": 0,
   "category": "Poland"
 },
 {
   "FIELD1": 11612,
   "name": "Slovenia",
   "lat": 45.8133113,
   "lon": 14.4808369,
   "date": "2020-01-24",
   "value": 0,
   "deaths": 0,
   "recovered": 0,
   "category": "Slovenia"
 },
 {
   "FIELD1": 7656,
   "name": "Liechtenstein",
   "lat": 47.1416307,
   "lon": 9.5531527,
   "date": "2020-01-24",
   "value": 0,
   "deaths": 0,
   "recovered": 0,
   "category": "Liechtenstein"
 },
 {
   "FIELD1": 14364,
   "name": "Belize",
   "lat": 16.8259793,
   "lon": -88.7600927,
   "date": "2020-01-24",
   "value": 0,
   "deaths": 0,
   "recovered": 0,
   "category": "Belize"
 },
 {
   "FIELD1": 14880,
   "name": "Saint Kitts and Nevis",
   "lat": 17.250512,
   "lon": -62.6725973,
   "date": "2020-01-24",
   "value": 0,
   "deaths": 0,
   "recovered": 0,
   "category": "Saint Kitts and Nevis"
 },
 {
   "FIELD1": 5592,
   "name": "Guyana",
   "lat": 4.8417097,
   "lon": -58.6416891,
   "date": "2020-01-24",
   "value": 0,
   "deaths": 0,
   "recovered": 0,
   "category": "Guyana"
 },
 {
   "FIELD1": 7140,
   "name": "Korea, South",
   "lat": 35.7724185,
   "lon": 127.79654346305617,
   "date": "2020-01-24",
   "value": 2,
   "deaths": 0,
   "recovered": 0,
   "category": "Korea, South"
 },
 {
   "FIELD1": 4990,
   "name": "Gambia",
   "lat": 13.470062,
   "lon": -15.4900464,
   "date": "2020-01-24",
   "value": 0,
   "deaths": 0,
   "recovered": 0,
   "category": "Gambia"
 },
 {
   "FIELD1": 10236,
   "name": "Philippines",
   "lat": 12.7503486,
   "lon": 122.7312101,
   "date": "2020-01-24",
   "value": 0,
   "deaths": 0,
   "recovered": 0,
   "category": "Philippines"
 },
 {
   "FIELD1": 2,
   "name": "Afghanistan",
   "lat": 33.7680065,
   "lon": 66.2385139,
   "date": "2020-01-24",
   "value": 0,
   "deaths": 0,
   "recovered": 0,
   "category": "Afghanistan"
 },
 {
   "FIELD1": 6882,
   "name": "Jordan",
   "lat": 31.1667049,
   "lon": 36.941628,
   "date": "2020-01-24",
   "value": 0,
   "deaths": 0,
   "recovered": 0,
   "category": "Jordan"
 },
 {
   "FIELD1": 12128,
   "name": "Suriname",
   "lat": 4.1413025,
   "lon": -56.0771187,
   "date": "2020-01-24",
   "value": 0,
   "deaths": 0,
   "recovered": 0,
   "category": "Suriname"
 },
 {
   "FIELD1": 1550,
   "name": "Bhutan",
   "lat": 27.549511,
   "lon": 90.5119273,
   "date": "2020-01-24",
   "value": 0,
   "deaths": 0,
   "recovered": 0,
   "category": "Bhutan"
 },
 {
   "FIELD1": 15052,
   "name": "Burma",
   "lat": 17.1750495,
   "lon": 95.9999652,
   "date": "2020-01-24",
   "value": 0,
   "deaths": 0,
   "recovered": 0,
   "category": "Burma"
 },
 {
   "FIELD1": 7570,
   "name": "Liberia",
   "lat": 5.7499721,
   "lon": -9.3658524,
   "date": "2020-01-24",
   "value": 0,
   "deaths": 0,
   "recovered": 0,
   "category": "Liberia"
 },
 {
   "FIELD1": 3700,
   "name": "Denmark",
   "lat": 55.670249,
   "lon": 10.3333283,
   "date": "2020-01-24",
   "value": 0,
   "deaths": 0,
   "recovered": 0,
   "category": "Denmark"
 },
 {
   "FIELD1": 14278,
   "name": "Timor-Leste",
   "lat": -8.5151979,
   "lon": 125.8375756,
   "date": "2020-01-24",
   "value": 0,
   "deaths": 0,
   "recovered": 0,
   "category": "Timor-Leste"
 },
 {
   "FIELD1": 2324,
   "name": "Cameroon",
   "lat": 4.6125522,
   "lon": 13.1535811,
   "date": "2020-01-24",
   "value": 0,
   "deaths": 0,
   "recovered": 0,
   "category": "Cameroon"
 },
 {
   "FIELD1": 8172,
   "name": "Malta",
   "lat": 35.8885993,
   "lon": 14.4476911,
   "date": "2020-01-24",
   "value": 0,
   "deaths": 0,
   "recovered": 0,
   "category": "Malta"
 },
 {
   "FIELD1": 13590,
   "name": "Venezuela",
   "lat": 8.0018709,
   "lon": -66.1109318,
   "date": "2020-01-24",
   "value": 0,
   "deaths": 0,
   "recovered": 0,
   "category": "Venezuela"
 },
 {
   "FIELD1": 260,
   "name": "Andorra",
   "lat": 42.5407167,
   "lon": 1.5732033,
   "date": "2020-01-24",
   "value": 0,
   "deaths": 0,
   "recovered": 0,
   "category": "Andorra"
 },
 {
   "FIELD1": 6366,
   "name": "Iraq",
   "lat": 33.0955793,
   "lon": 44.1749775,
   "date": "2020-01-24",
   "value": 0,
   "deaths": 0,
   "recovered": 0,
   "category": "Iraq"
 },
 {
   "FIELD1": 11096,
   "name": "Saudi Arabia",
   "lat": 25.6242618,
   "lon": 42.3528328,
   "date": "2020-01-24",
   "value": 0,
   "deaths": 0,
   "recovered": 0,
   "category": "Saudi Arabia"
 },
 {
   "FIELD1": 3356,
   "name": "Diamond Princess",
   "lat": 53.8953584,
   "lon": 27.5554078,
   "date": "2020-01-24",
   "value": 0,
   "deaths": 0,
   "recovered": 0,
   "category": "Diamond Princess"
 },
 {
   "FIELD1": 11526,
   "name": "Slovakia",
   "lat": 48.7411522,
   "lon": 19.4528646,
   "date": "2020-01-24",
   "value": 0,
   "deaths": 0,
   "recovered": 0,
   "category": "Slovakia"
 },
 {
   "FIELD1": 15654,
   "name": "Western Sahara",
   "lat": 24.1797324,
   "lon": -13.7667848,
   "date": "2020-01-24",
   "value": 0,
   "deaths": 0,
   "recovered": 0,
   "category": "Western Sahara"
 },
 {
   "FIELD1": 4732,
   "name": "Finland",
   "lat": 63.2467777,
   "lon": 25.9209164,
   "date": "2020-01-24",
   "value": 0,
   "deaths": 0,
   "recovered": 0,
   "category": "Finland"
 },
 {
   "FIELD1": 4302,
   "name": "Eritrea",
   "lat": 15.9500319,
   "lon": 37.9999668,
   "date": "2020-01-24",
   "value": 0,
   "deaths": 0,
   "recovered": 0,
   "category": "Eritrea"
 },
 {
   "FIELD1": 5162,
   "name": "Germany",
   "lat": 51.0834196,
   "lon": 10.4234469,
   "date": "2020-01-24",
   "value": 0,
   "deaths": 0,
   "recovered": 0,
   "category": "Germany"
 },
 {
   "FIELD1": 604,
   "name": "Armenia",
   "lat": 40.7696272,
   "lon": 44.6736646,
   "date": "2020-01-24",
   "value": 0,
   "deaths": 0,
   "recovered": 0,
   "category": "Armenia"
 },
 {
   "FIELD1": 5764,
   "name": "Holy See",
   "lat": 38.9247244,
   "lon": -77.06572732690151,
   "date": "2020-01-24",
   "value": 0,
   "deaths": 0,
   "recovered": 0,
   "category": "Holy See"
 },
 {
   "FIELD1": 15310,
   "name": "Burundi",
   "lat": -3.3634357,
   "lon": 29.8870575,
   "date": "2020-01-24",
   "value": 0,
   "deaths": 0,
   "recovered": 0,
   "category": "Burundi"
 },
 {
   "FIELD1": 1034,
   "name": "Bahrain",
   "lat": 26.1551249,
   "lon": 50.5344606,
   "date": "2020-01-24",
   "value": 0,
   "deaths": 0,
   "recovered": 0,
   "category": "Bahrain"
 },
 {
   "FIELD1": 2496,
   "name": "Central African Republic",
   "lat": 7.0323598,
   "lon": 19.9981227,
   "date": "2020-01-24",
   "value": 0,
   "deaths": 0,
   "recovered": 0,
   "category": "Central African Republic"
 },
 {
   "FIELD1": 3270,
   "name": "Croatia",
   "lat": 45.5643442,
   "lon": 17.0118954,
   "date": "2020-01-24",
   "value": 0,
   "deaths": 0,
   "recovered": 0,
   "category": "Croatia"
 },
 {
   "FIELD1": 1722,
   "name": "Bosnia and Herzegovina",
   "lat": 44.3053476,
   "lon": 17.5961467,
   "date": "2020-01-24",
   "value": 0,
   "deaths": 0,
   "recovered": 0,
   "category": "Bosnia and Herzegovina"
 },
 {
   "FIELD1": 5420,
   "name": "Guatemala",
   "lat": 15.6356088,
   "lon": -89.8988087,
   "date": "2020-01-24",
   "value": 0,
   "deaths": 0,
   "recovered": 0,
   "category": "Guatemala"
 },
 {
   "FIELD1": 15740,
   "name": "Sao Tome and Principe",
   "lat": 0.8875498,
   "lon": 6.9648718,
   "date": "2020-01-24",
   "value": 0,
   "deaths": 0,
   "recovered": 0,
   "category": "Sao Tome and Principe"
 },
 {
   "FIELD1": 8946,
   "name": "Namibia",
   "lat": -23.2335499,
   "lon": 17.3231107,
   "date": "2020-01-24",
   "value": 0,
   "deaths": 0,
   "recovered": 0,
   "category": "Namibia"
 },
 {
   "FIELD1": 3958,
   "name": "Ecuador",
   "lat": -1.3397668,
   "lon": -79.3666965,
   "date": "2020-01-24",
   "value": 0,
   "deaths": 0,
   "recovered": 0,
   "category": "Ecuador"
 },